<?xml version="1.0" encoding="UTF-8"?>
<doc>
    <objects>
        <object class="WED_Root" id="1" parent_id="0">
            <sources/>
            <viewers/>
            <children>
                <child id="2"/>
                <child id="3"/>
                <child id="4"/>
            </children>
            <hierarchy name="root"/>
        </object>
        <object class="WED_SimpleBoundaryNode" id="513" parent_id="505">
            <sources/>
            <viewers/>
            <children/>
            <hierarchy hidden="0" locked="0" name="Node 7"/>
            <point latitude="7.180264327" longitude="100.615368486"/>
        </object>
        <object class="WED_TowerViewpoint" id="65" parent_id="16">
            <sources/>
            <viewers/>
            <children/>
            <hierarchy hidden="0" locked="0" name="ATC Tower"/>
            <point latitude="7.184295414" longitude="100.608386348"/>
            <tower_viewpoint height="5"/>
        </object>
        <object class="WED_Select" id="2" parent_id="1">
            <sources/>
            <viewers/>
            <children/>
            <hierarchy name="selection"/>
            <selection>
                <sel id="666"/>
            </selection>
        </object>
        <object class="WED_SimpleBoundaryNode" id="514" parent_id="505">
            <sources/>
            <viewers/>
            <children/>
            <hierarchy hidden="0" locked="0" name="Node 8"/>
            <point latitude="7.180544985" longitude="100.615168403"/>
        </object>
        <object class="WED_AirportBeacon" id="66" parent_id="16">
            <sources/>
            <viewers/>
            <children/>
            <hierarchy hidden="0" locked="0" name="BCN"/>
            <point latitude="7.185828954" longitude="100.605946205"/>
            <airport_beacon type="Airport"/>
        </object>
        <object class="WED_Group" id="10" parent_id="5">
            <sources/>
            <viewers/>
            <children>
                <child id="242"/>
                <child id="241"/>
                <child id="64"/>
                <child id="248"/>
                <child id="464"/>
                <child id="463"/>
                <child id="462"/>
            </children>
            <hierarchy hidden="0" locked="0" name="Ramp Starts"/>
        </object>
        <object class="WED_KeyObjects" id="3" parent_id="1">
            <sources/>
            <viewers/>
            <children/>
            <hierarchy name="choices"/>
            <keys>
                <key id="5" name="airport"/>
            </keys>
        </object>
        <object class="WED_SimpleBoundaryNode" id="515" parent_id="505">
            <sources/>
            <viewers/>
            <children/>
            <hierarchy hidden="0" locked="0" name="Node 9"/>
            <point latitude="7.180675046" longitude="100.615009716"/>
        </object>
        <object class="WED_Windsock" id="67" parent_id="17">
            <sources/>
            <viewers/>
            <children/>
            <hierarchy hidden="0" locked="0" name="WS"/>
            <point latitude="7.191853000" longitude="100.603821000"/>
            <windsock lit="1"/>
        </object>
        <object class="WED_Group" id="4" parent_id="1">
            <sources/>
            <viewers/>
            <children>
                <child id="5"/>
            </children>
            <hierarchy hidden="0" locked="0" name="world"/>
        </object>
        <object class="WED_SimpleBoundaryNode" id="516" parent_id="505">
            <sources/>
            <viewers/>
            <children/>
            <hierarchy hidden="0" locked="0" name="Node 10"/>
            <point latitude="7.180921478" longitude="100.614782036"/>
        </object>
        <object class="WED_Windsock" id="68" parent_id="17">
            <sources/>
            <viewers/>
            <children/>
            <hierarchy hidden="0" locked="0" name="WS"/>
            <point latitude="7.181147000" longitude="100.612335000"/>
            <windsock lit="1"/>
        </object>
        <object class="WED_Airport" id="5" parent_id="4">
            <sources/>
            <viewers/>
            <children>
                <child id="612"/>
                <child id="350"/>
                <child id="247"/>
                <child id="6"/>
                <child id="8"/>
                <child id="10"/>
                <child id="11"/>
                <child id="15"/>
                <child id="16"/>
                <child id="17"/>
                <child id="71"/>
                <child id="466"/>
                <child id="349"/>
                <child id="76"/>
            </children>
            <hierarchy hidden="0" locked="0" name="Songkhla"/>
            <airport always_flatten="0" drive_on_left="0" elevation="3.7" has_atc="1" icao="VTSH" kind="Airport" scenery_id="-1"/>
            <meta_data>
                <meta_data_entry pair="city,"/>
                <meta_data_entry pair="country,Thailand"/>
                <meta_data_entry pair="datum_lat,7.185719444"/>
                <meta_data_entry pair="datum_lon,100.608794444"/>
                <meta_data_entry pair="faa_code,"/>
                <meta_data_entry pair="iata_code,SGZ"/>
                <meta_data_entry pair="icao_code,VTSH"/>
                <meta_data_entry pair="region_code,VT"/>
                <meta_data_entry pair="state,Songkhla Province"/>
                <meta_data_entry pair="transition_alt,11000"/>
                <meta_data_entry pair="transition_level,13000"/>
            </meta_data>
        </object>
        <object class="WED_ForestRing" id="517" parent_id="518">
            <sources/>
            <viewers/>
            <children>
                <child id="519"/>
                <child id="520"/>
                <child id="521"/>
                <child id="522"/>
                <child id="523"/>
                <child id="524"/>
                <child id="525"/>
                <child id="526"/>
                <child id="527"/>
                <child id="528"/>
                <child id="529"/>
                <child id="530"/>
                <child id="531"/>
                <child id="532"/>
                <child id="533"/>
                <child id="534"/>
            </children>
            <hierarchy hidden="0" locked="0" name="Forest 10 outer ring"/>
        </object>
        <object class="WED_ATCFrequency" id="69" parent_id="6">
            <sources/>
            <viewers/>
            <children/>
            <hierarchy name="TWR"/>
            <atc_frequency freq="126.200" kind="Tower"/>
        </object>
        <object class="WED_Group" id="6" parent_id="5">
            <sources/>
            <viewers/>
            <children>
                <child id="69"/>
            </children>
            <hierarchy hidden="0" locked="0" name="ATC"/>
        </object>
        <object class="WED_ForestPlacement" id="518" parent_id="350">
            <sources/>
            <viewers/>
            <children>
                <child id="517"/>
            </children>
            <hierarchy hidden="0" locked="0" name="AG_trees_EU1.for"/>
            <forest_placement closed="Area" density="0.6" resource="lib/g10/forests/AG_trees_EU1.for"/>
        </object>
        <object class="WED_AirportChain" id="70" parent_id="71">
            <sources/>
            <viewers/>
            <children>
                <child id="72"/>
                <child id="504"/>
                <child id="73"/>
                <child id="502"/>
                <child id="74"/>
                <child id="503"/>
                <child id="75"/>
            </children>
            <hierarchy hidden="0" locked="0" name="Airport Boundary 1 Outer Ring"/>
            <airport_chain closed="1"/>
        </object>
        <object class="WED_Group" id="8" parent_id="5">
            <sources/>
            <viewers/>
            <children>
                <child id="63"/>
            </children>
            <hierarchy hidden="0" locked="0" name="Lights"/>
        </object>
        <object class="WED_Group" id="11" parent_id="5">
            <sources/>
            <viewers/>
            <children>
                <child id="18"/>
            </children>
            <hierarchy hidden="0" locked="1" name="Runways"/>
        </object>
        <object class="WED_Group" id="15" parent_id="5">
            <sources/>
            <viewers/>
            <children>
                <child id="445"/>
                <child id="276"/>
                <child id="274"/>
                <child id="275"/>
                <child id="621"/>
                <child id="21"/>
                <child id="27"/>
                <child id="33"/>
                <child id="39"/>
                <child id="45"/>
                <child id="234"/>
                <child id="536"/>
                <child id="568"/>
            </children>
            <hierarchy hidden="0" locked="0" name="Taxiways"/>
        </object>
        <object class="WED_Group" id="16" parent_id="5">
            <sources/>
            <viewers/>
            <children>
                <child id="65"/>
                <child id="66"/>
            </children>
            <hierarchy hidden="0" locked="0" name="Tower, Beacon and Boundaries"/>
        </object>
        <object class="WED_Group" id="17" parent_id="5">
            <sources/>
            <viewers/>
            <children>
                <child id="67"/>
                <child id="68"/>
            </children>
            <hierarchy hidden="0" locked="0" name="Windsocks"/>
        </object>
        <object class="WED_Runway" id="18" parent_id="11">
            <sources/>
            <viewers/>
            <children>
                <child id="19"/>
                <child id="20"/>
            </children>
            <hierarchy hidden="0" locked="0" name="13/31"/>
            <line width="45.11"/>
            <runway REIL1="None" REIL2="None" TDZL1="0" TDZL2="0" app_lites1="None" app_lites2="None" blastpad1="0.0" blastpad2="0.0" center_lites="1" displaced1="0.0" displaced2="0.0" distance_signs="1" edge_lites="HIRL" markings1="Non-Precision (US)" markings2="Non-Precision (US)" roughness="0.25" shoulder="None" surface="Asphalt"/>
        </object>
        <object class="WED_RunwayNode" id="19" parent_id="18">
            <sources/>
            <viewers/>
            <children/>
            <hierarchy hidden="0" locked="0" name="unnamed entity"/>
            <point latitude="7.191337605" longitude="100.603138020"/>
        </object>
        <object class="WED_RunwayNode" id="20" parent_id="18">
            <sources/>
            <viewers/>
            <children/>
            <hierarchy hidden="0" locked="0" name="unnamed entity"/>
            <point latitude="7.181741807" longitude="100.612827491"/>
        </object>
        <object class="WED_Taxiway" id="21" parent_id="15">
            <sources/>
            <viewers/>
            <children>
                <child id="22"/>
            </children>
            <hierarchy hidden="0" locked="0" name="xxx"/>
            <taxiway heading="134.88" roughness="0.35" surface="Asphalt"/>
        </object>
        <object class="WED_AirportChain" id="22" parent_id="21">
            <sources/>
            <viewers/>
            <children>
                <child id="23"/>
                <child id="24"/>
                <child id="25"/>
                <child id="223"/>
                <child id="26"/>
                <child id="354"/>
                <child id="353"/>
            </children>
            <hierarchy hidden="0" locked="0" name="unnamed entity"/>
            <airport_chain closed="1"/>
        </object>
        <object class="WED_AirportNode" id="23" parent_id="22">
            <sources/>
            <viewers/>
            <children/>
            <hierarchy hidden="0" locked="0" name="unnamed entity"/>
            <point ctrl_latitude_hi="0.000000000" ctrl_latitude_lo="0.000000000" ctrl_longitude_hi="0.000000000" ctrl_longitude_lo="0.000000000" latitude="7.186251315" longitude="100.605238213" split="0"/>
            <markings/>
        </object>
        <object class="WED_AirportNode" id="24" parent_id="22">
            <sources/>
            <viewers/>
            <children/>
            <hierarchy hidden="0" locked="0" name="unnamed entity"/>
            <point ctrl_latitude_hi="0.000000000" ctrl_latitude_lo="0.000000000" ctrl_longitude_hi="0.000000000" ctrl_longitude_lo="0.000000000" latitude="7.185528856" longitude="100.605953242" split="0"/>
            <markings/>
        </object>
        <object class="WED_AirportNode" id="25" parent_id="22">
            <sources/>
            <viewers/>
            <children/>
            <hierarchy hidden="0" locked="0" name="unnamed entity"/>
            <point ctrl_latitude_hi="0.000000000" ctrl_latitude_lo="0.000000000" ctrl_longitude_hi="0.000000000" ctrl_longitude_lo="0.000000000" latitude="7.185991949" longitude="100.606412204" split="0"/>
            <markings/>
        </object>
        <object class="WED_AirportNode" id="26" parent_id="22">
            <sources/>
            <viewers/>
            <children/>
            <hierarchy hidden="0" locked="0" name="unnamed entity"/>
            <point ctrl_latitude_hi="0.000000000" ctrl_latitude_lo="0.000000000" ctrl_longitude_hi="0.000000000" ctrl_longitude_lo="0.000000000" latitude="7.187027518" longitude="100.605455851" split="0"/>
            <markings/>
        </object>
        <object class="WED_Taxiway" id="27" parent_id="15">
            <sources/>
            <viewers/>
            <children>
                <child id="28"/>
            </children>
            <hierarchy hidden="0" locked="0" name="xxx"/>
            <taxiway heading="194.88" roughness="0.35" surface="Asphalt"/>
        </object>
        <object class="WED_AirportChain" id="28" parent_id="27">
            <sources/>
            <viewers/>
            <children>
                <child id="29"/>
                <child id="226"/>
                <child id="30"/>
                <child id="31"/>
                <child id="231"/>
                <child id="232"/>
                <child id="32"/>
            </children>
            <hierarchy hidden="0" locked="0" name="unnamed entity"/>
            <airport_chain closed="1"/>
        </object>
        <object class="WED_AirportNode" id="29" parent_id="28">
            <sources/>
            <viewers/>
            <children/>
            <hierarchy hidden="0" locked="0" name="unnamed entity"/>
            <point ctrl_latitude_hi="0.000000000" ctrl_latitude_lo="0.000000000" ctrl_longitude_hi="0.000000000" ctrl_longitude_lo="0.000000000" latitude="7.188529156" longitude="100.605726379" split="0"/>
            <markings/>
        </object>
        <object class="WED_AirportNode" id="30" parent_id="28">
            <sources/>
            <viewers/>
            <children/>
            <hierarchy hidden="0" locked="0" name="unnamed entity"/>
            <point ctrl_latitude_hi="-0.000118842" ctrl_latitude_lo="0.000118842" ctrl_longitude_hi="0.000003993" ctrl_longitude_lo="-0.000003993" latitude="7.186912306" longitude="100.605151239" split="0"/>
            <markings/>
        </object>
        <object class="WED_AirportNode" id="31" parent_id="28">
            <sources/>
            <viewers/>
            <children/>
            <hierarchy hidden="0" locked="0" name="unnamed entity"/>
            <point ctrl_latitude_hi="0.000000000" ctrl_latitude_lo="0.000000000" ctrl_longitude_hi="0.000000000" ctrl_longitude_lo="0.000000000" latitude="7.186761427" longitude="100.605125576" split="0"/>
            <markings/>
        </object>
        <object class="WED_AirportNode" id="32" parent_id="28">
            <sources/>
            <viewers/>
            <children/>
            <hierarchy hidden="0" locked="0" name="unnamed entity"/>
            <point ctrl_latitude_hi="0.000000000" ctrl_latitude_lo="0.000000000" ctrl_longitude_hi="0.000000000" ctrl_longitude_lo="0.000000000" latitude="7.188330994" longitude="100.605895162" split="0"/>
            <markings/>
        </object>
        <object class="WED_Taxiway" id="33" parent_id="15">
            <sources/>
            <viewers/>
            <children>
                <child id="34"/>
            </children>
            <hierarchy hidden="0" locked="0" name="xxx"/>
            <taxiway heading="224.88" roughness="0.35" surface="Concrete"/>
        </object>
        <object class="WED_AirportChain" id="34" parent_id="33">
            <sources/>
            <viewers/>
            <children>
                <child id="35"/>
                <child id="222"/>
                <child id="36"/>
                <child id="37"/>
                <child id="221"/>
                <child id="38"/>
            </children>
            <hierarchy hidden="0" locked="0" name="unnamed entity"/>
            <airport_chain closed="1"/>
        </object>
        <object class="WED_AirportNode" id="35" parent_id="34">
            <sources/>
            <viewers/>
            <children/>
            <hierarchy hidden="0" locked="0" name="unnamed entity"/>
            <point ctrl_latitude_hi="0.000000000" ctrl_latitude_lo="0.000000000" ctrl_longitude_hi="0.000000000" ctrl_longitude_lo="0.000000000" latitude="7.185693255" longitude="100.608628222" split="0"/>
            <markings/>
        </object>
        <object class="WED_AirportNode" id="36" parent_id="34">
            <sources/>
            <viewers/>
            <children/>
            <hierarchy hidden="0" locked="0" name="unnamed entity"/>
            <point ctrl_latitude_hi="0.000000000" ctrl_latitude_lo="0.000000000" ctrl_longitude_hi="0.000000000" ctrl_longitude_lo="0.000000000" latitude="7.184618135" longitude="100.607972147" split="0"/>
            <markings/>
        </object>
        <object class="WED_AirportNode" id="37" parent_id="34">
            <sources/>
            <viewers/>
            <children/>
            <hierarchy hidden="0" locked="0" name="unnamed entity"/>
            <point ctrl_latitude_hi="0.000000000" ctrl_latitude_lo="0.000000000" ctrl_longitude_hi="0.000000000" ctrl_longitude_lo="0.000000000" latitude="7.184564676" longitude="100.608054005" split="0"/>
            <markings/>
        </object>
        <object class="WED_AirportNode" id="38" parent_id="34">
            <sources/>
            <viewers/>
            <children/>
            <hierarchy hidden="0" locked="0" name="unnamed entity"/>
            <point ctrl_latitude_hi="0.000000000" ctrl_latitude_lo="0.000000000" ctrl_longitude_hi="0.000000000" ctrl_longitude_lo="0.000000000" latitude="7.185433485" longitude="100.608877176" split="0"/>
            <markings/>
        </object>
        <object class="WED_Taxiway" id="39" parent_id="15">
            <sources/>
            <viewers/>
            <children>
                <child id="40"/>
            </children>
            <hierarchy hidden="0" locked="0" name="xxx"/>
            <taxiway heading="224.88" roughness="0.35" surface="Asphalt"/>
        </object>
        <object class="WED_AirportChain" id="40" parent_id="39">
            <sources/>
            <viewers/>
            <children>
                <child id="41"/>
                <child id="225"/>
                <child id="42"/>
                <child id="352"/>
                <child id="43"/>
                <child id="224"/>
                <child id="44"/>
            </children>
            <hierarchy hidden="0" locked="0" name="unnamed entity"/>
            <airport_chain closed="1"/>
        </object>
        <object class="WED_AirportNode" id="41" parent_id="40">
            <sources/>
            <viewers/>
            <children/>
            <hierarchy hidden="0" locked="0" name="unnamed entity"/>
            <point ctrl_latitude_hi="0.000000000" ctrl_latitude_lo="0.000000000" ctrl_longitude_hi="0.000000000" ctrl_longitude_lo="0.000000000" latitude="7.186834549" longitude="100.607456190" split="0"/>
            <markings/>
        </object>
        <object class="WED_AirportNode" id="42" parent_id="40">
            <sources/>
            <viewers/>
            <children/>
            <hierarchy hidden="0" locked="0" name="unnamed entity"/>
            <point ctrl_latitude_hi="0.000000000" ctrl_latitude_lo="0.000000000" ctrl_longitude_hi="0.000000000" ctrl_longitude_lo="0.000000000" latitude="7.186143679" longitude="100.606412216" split="0"/>
            <markings/>
        </object>
        <object class="WED_AirportNode" id="43" parent_id="40">
            <sources/>
            <viewers/>
            <children/>
            <hierarchy hidden="0" locked="0" name="unnamed entity"/>
            <point ctrl_latitude_hi="0.000000000" ctrl_latitude_lo="0.000000000" ctrl_longitude_hi="0.000000000" ctrl_longitude_lo="0.000000000" latitude="7.186287648" longitude="100.607314570" split="0"/>
            <markings/>
        </object>
        <object class="WED_AirportNode" id="44" parent_id="40">
            <sources/>
            <viewers/>
            <children/>
            <hierarchy hidden="0" locked="0" name="unnamed entity"/>
            <point ctrl_latitude_hi="0.000000000" ctrl_latitude_lo="0.000000000" ctrl_longitude_hi="0.000000000" ctrl_longitude_lo="0.000000000" latitude="7.186232479" longitude="100.608082093" split="0"/>
            <markings/>
        </object>
        <object class="WED_Taxiway" id="45" parent_id="15">
            <sources/>
            <viewers/>
            <children>
                <child id="46"/>
            </children>
            <hierarchy hidden="0" locked="0" name="xxx"/>
            <taxiway heading="44.88" roughness="0.35" surface="Concrete"/>
        </object>
        <object class="WED_AirportChain" id="46" parent_id="45">
            <sources/>
            <viewers/>
            <children>
                <child id="47"/>
                <child id="48"/>
                <child id="49"/>
                <child id="50"/>
            </children>
            <hierarchy hidden="0" locked="0" name="unnamed entity"/>
            <airport_chain closed="1"/>
        </object>
        <object class="WED_AirportNode" id="47" parent_id="46">
            <sources/>
            <viewers/>
            <children/>
            <hierarchy hidden="0" locked="0" name="unnamed entity"/>
            <point ctrl_latitude_hi="0.000000000" ctrl_latitude_lo="0.000000000" ctrl_longitude_hi="0.000000000" ctrl_longitude_lo="0.000000000" latitude="7.183483923" longitude="100.607198578" split="0"/>
            <markings/>
        </object>
        <object class="WED_AirportNode" id="48" parent_id="46">
            <sources/>
            <viewers/>
            <children/>
            <hierarchy hidden="0" locked="0" name="unnamed entity"/>
            <point ctrl_latitude_hi="0.000000000" ctrl_latitude_lo="0.000000000" ctrl_longitude_hi="0.000000000" ctrl_longitude_lo="0.000000000" latitude="7.184573257" longitude="100.608061709" split="0"/>
            <markings/>
        </object>
        <object class="WED_AirportNode" id="49" parent_id="46">
            <sources/>
            <viewers/>
            <children/>
            <hierarchy hidden="0" locked="0" name="unnamed entity"/>
            <point ctrl_latitude_hi="0.000000000" ctrl_latitude_lo="0.000000000" ctrl_longitude_hi="0.000000000" ctrl_longitude_lo="0.000000000" latitude="7.184859045" longitude="100.607704094" split="0"/>
            <markings/>
        </object>
        <object class="WED_AirportNode" id="50" parent_id="46">
            <sources/>
            <viewers/>
            <children/>
            <hierarchy hidden="0" locked="0" name="unnamed entity"/>
            <point ctrl_latitude_hi="0.000000000" ctrl_latitude_lo="0.000000000" ctrl_longitude_hi="0.000000000" ctrl_longitude_lo="0.000000000" latitude="7.183712998" longitude="100.606932226" split="0"/>
            <markings/>
        </object>
        <object class="WED_LightFixture" id="63" parent_id="8">
            <sources/>
            <viewers/>
            <children/>
            <hierarchy hidden="0" locked="0" name="31  PAPI-4L"/>
            <point heading="134.88" latitude="7.182707930" longitude="100.611343410"/>
            <light_fixture angle="3.00" type="PAPI (Left Side)"/>
        </object>
        <object class="WED_RampPosition" id="64" parent_id="10">
            <sources/>
            <viewers>
                <viewer id="585"/>
            </viewers>
            <children/>
            <hierarchy hidden="0" locked="0" name="Platform 3"/>
            <point heading="10.00" latitude="7.186047232" longitude="100.606085557"/>
            <ramp_start airlines="" ramp_op_type="None" traffic="63" type="Misc" width="C"/>
        </object>
        <object class="WED_AirportBoundary" id="71" parent_id="5">
            <sources/>
            <viewers/>
            <children>
                <child id="70"/>
            </children>
            <hierarchy hidden="0" locked="0" name="Airport Boundary 1"/>
        </object>
        <object class="WED_AirportNode" id="72" parent_id="70">
            <sources/>
            <viewers/>
            <children/>
            <hierarchy hidden="0" locked="0" name="Node 1"/>
            <point ctrl_latitude_hi="0.000000000" ctrl_latitude_lo="0.000000000" ctrl_longitude_hi="0.000000000" ctrl_longitude_lo="0.000000000" latitude="7.191613485" longitude="100.602000708" split="0"/>
            <markings/>
        </object>
        <object class="WED_AirportNode" id="73" parent_id="70">
            <sources/>
            <viewers/>
            <children/>
            <hierarchy hidden="0" locked="0" name="Node 2"/>
            <point ctrl_latitude_hi="0.000000000" ctrl_latitude_lo="0.000000000" ctrl_longitude_hi="0.000000000" ctrl_longitude_lo="0.000000000" latitude="7.183110702" longitude="100.607225060" split="0"/>
            <markings/>
        </object>
        <object class="WED_AirportNode" id="74" parent_id="70">
            <sources/>
            <viewers/>
            <children/>
            <hierarchy hidden="0" locked="0" name="Node 3"/>
            <point ctrl_latitude_hi="0.000000000" ctrl_latitude_lo="0.000000000" ctrl_longitude_hi="0.000000000" ctrl_longitude_lo="0.000000000" latitude="7.180245994" longitude="100.615944494" split="0"/>
            <markings/>
        </object>
        <object class="WED_AirportNode" id="75" parent_id="70">
            <sources/>
            <viewers/>
            <children/>
            <hierarchy hidden="0" locked="0" name="Node 4"/>
            <point ctrl_latitude_hi="0.000000000" ctrl_latitude_lo="0.000000000" ctrl_longitude_hi="0.000000000" ctrl_longitude_lo="0.000000000" latitude="7.193135176" longitude="100.604157616" split="0"/>
            <markings/>
        </object>
        <object class="WED_Group" id="76" parent_id="5">
            <sources/>
            <viewers/>
            <children>
                <child id="77"/>
                <child id="83"/>
                <child id="89"/>
                <child id="95"/>
                <child id="101"/>
                <child id="107"/>
                <child id="113"/>
                <child id="119"/>
                <child id="125"/>
                <child id="131"/>
                <child id="137"/>
                <child id="143"/>
                <child id="149"/>
                <child id="155"/>
                <child id="161"/>
                <child id="167"/>
                <child id="173"/>
                <child id="179"/>
                <child id="185"/>
                <child id="191"/>
                <child id="197"/>
                <child id="203"/>
                <child id="209"/>
                <child id="215"/>
            </children>
            <hierarchy hidden="1" locked="1" name="Overlays-Wedbing"/>
        </object>
        <object class="WED_OverlayImage" id="77" parent_id="76">
            <sources/>
            <viewers/>
            <children>
                <child id="78"/>
            </children>
            <hierarchy hidden="0" locked="0" name="1322213132023222"/>
            <overlay_image alpha="1.0" file_path="..\..\..\..\..\..\..\Users\Dad\wedbing\tempfilestore\1322213132023222.jpg"/>
        </object>
        <object class="WED_Ring" id="78" parent_id="77">
            <sources/>
            <viewers/>
            <children>
                <child id="79"/>
                <child id="80"/>
                <child id="81"/>
                <child id="82"/>
            </children>
            <hierarchy hidden="0" locked="0" name="Image Boundary"/>
        </object>
        <object class="WED_TextureNode" id="79" parent_id="78">
            <sources/>
            <viewers/>
            <children/>
            <hierarchy hidden="0" locked="0" name="Corner 4"/>
            <point latitude="7.188100000" longitude="100.590820000"/>
            <texture_node s="0.0000" t="0.0000"/>
        </object>
        <object class="WED_TextureNode" id="80" parent_id="78">
            <sources/>
            <viewers/>
            <children/>
            <hierarchy hidden="0" locked="0" name="unnamed entity"/>
            <point latitude="7.188100000" longitude="100.596313000"/>
            <texture_node s="1.0000" t="0.0000"/>
        </object>
        <object class="WED_TextureNode" id="81" parent_id="78">
            <sources/>
            <viewers/>
            <children/>
            <hierarchy hidden="0" locked="0" name="unnamed entity"/>
            <point latitude="7.193550000" longitude="100.596313000"/>
            <texture_node s="1.0000" t="1.0000"/>
        </object>
        <object class="WED_TextureNode" id="82" parent_id="78">
            <sources/>
            <viewers/>
            <children/>
            <hierarchy hidden="0" locked="0" name="unnamed entity"/>
            <point latitude="7.193550000" longitude="100.590820000"/>
            <texture_node s="0.0000" t="1.0000"/>
        </object>
        <object class="WED_OverlayImage" id="83" parent_id="76">
            <sources/>
            <viewers/>
            <children>
                <child id="84"/>
            </children>
            <hierarchy hidden="0" locked="0" name="1322213132201000"/>
            <overlay_image alpha="1.0" file_path="..\..\..\..\..\..\..\Users\Dad\wedbing\tempfilestore\1322213132201000.jpg"/>
        </object>
        <object class="WED_Ring" id="84" parent_id="83">
            <sources/>
            <viewers/>
            <children>
                <child id="85"/>
                <child id="86"/>
                <child id="87"/>
                <child id="88"/>
            </children>
            <hierarchy hidden="0" locked="0" name="Image Boundary"/>
        </object>
        <object class="WED_TextureNode" id="85" parent_id="84">
            <sources/>
            <viewers/>
            <children/>
            <hierarchy hidden="0" locked="0" name="Corner 4"/>
            <point latitude="7.182650000" longitude="100.590820000"/>
            <texture_node s="0.0000" t="0.0000"/>
        </object>
        <object class="WED_TextureNode" id="86" parent_id="84">
            <sources/>
            <viewers/>
            <children/>
            <hierarchy hidden="0" locked="0" name="unnamed entity"/>
            <point latitude="7.182650000" longitude="100.596313000"/>
            <texture_node s="1.0000" t="0.0000"/>
        </object>
        <object class="WED_TextureNode" id="87" parent_id="84">
            <sources/>
            <viewers/>
            <children/>
            <hierarchy hidden="0" locked="0" name="unnamed entity"/>
            <point latitude="7.188100000" longitude="100.596313000"/>
            <texture_node s="1.0000" t="1.0000"/>
        </object>
        <object class="WED_TextureNode" id="88" parent_id="84">
            <sources/>
            <viewers/>
            <children/>
            <hierarchy hidden="0" locked="0" name="unnamed entity"/>
            <point latitude="7.188100000" longitude="100.590820000"/>
            <texture_node s="0.0000" t="1.0000"/>
        </object>
        <object class="WED_OverlayImage" id="89" parent_id="76">
            <sources/>
            <viewers/>
            <children>
                <child id="90"/>
            </children>
            <hierarchy hidden="0" locked="0" name="1322213132201002"/>
            <overlay_image alpha="1.0" file_path="..\..\..\..\..\..\..\Users\Dad\wedbing\tempfilestore\1322213132201002.jpg"/>
        </object>
        <object class="WED_Ring" id="90" parent_id="89">
            <sources/>
            <viewers/>
            <children>
                <child id="91"/>
                <child id="92"/>
                <child id="93"/>
                <child id="94"/>
            </children>
            <hierarchy hidden="0" locked="0" name="Image Boundary"/>
        </object>
        <object class="WED_TextureNode" id="91" parent_id="90">
            <sources/>
            <viewers/>
            <children/>
            <hierarchy hidden="0" locked="0" name="Corner 4"/>
            <point latitude="7.177200000" longitude="100.590820000"/>
            <texture_node s="0.0000" t="0.0000"/>
        </object>
        <object class="WED_TextureNode" id="92" parent_id="90">
            <sources/>
            <viewers/>
            <children/>
            <hierarchy hidden="0" locked="0" name="unnamed entity"/>
            <point latitude="7.177200000" longitude="100.596313000"/>
            <texture_node s="1.0000" t="0.0000"/>
        </object>
        <object class="WED_TextureNode" id="93" parent_id="90">
            <sources/>
            <viewers/>
            <children/>
            <hierarchy hidden="0" locked="0" name="unnamed entity"/>
            <point latitude="7.182650000" longitude="100.596313000"/>
            <texture_node s="1.0000" t="1.0000"/>
        </object>
        <object class="WED_TextureNode" id="94" parent_id="90">
            <sources/>
            <viewers/>
            <children/>
            <hierarchy hidden="0" locked="0" name="unnamed entity"/>
            <point latitude="7.182650000" longitude="100.590820000"/>
            <texture_node s="0.0000" t="1.0000"/>
        </object>
        <object class="WED_OverlayImage" id="95" parent_id="76">
            <sources/>
            <viewers/>
            <children>
                <child id="96"/>
            </children>
            <hierarchy hidden="0" locked="0" name="1322213132201020"/>
            <overlay_image alpha="1.0" file_path="..\..\..\..\..\..\..\Users\Dad\wedbing\tempfilestore\1322213132201020.jpg"/>
        </object>
        <object class="WED_Ring" id="96" parent_id="95">
            <sources/>
            <viewers/>
            <children>
                <child id="97"/>
                <child id="98"/>
                <child id="99"/>
                <child id="100"/>
            </children>
            <hierarchy hidden="0" locked="0" name="Image Boundary"/>
        </object>
        <object class="WED_TextureNode" id="97" parent_id="96">
            <sources/>
            <viewers/>
            <children/>
            <hierarchy hidden="0" locked="0" name="Corner 4"/>
            <point latitude="7.171750000" longitude="100.590820000"/>
            <texture_node s="0.0000" t="0.0000"/>
        </object>
        <object class="WED_TextureNode" id="98" parent_id="96">
            <sources/>
            <viewers/>
            <children/>
            <hierarchy hidden="0" locked="0" name="unnamed entity"/>
            <point latitude="7.171750000" longitude="100.596313000"/>
            <texture_node s="1.0000" t="0.0000"/>
        </object>
        <object class="WED_TextureNode" id="99" parent_id="96">
            <sources/>
            <viewers/>
            <children/>
            <hierarchy hidden="0" locked="0" name="unnamed entity"/>
            <point latitude="7.177200000" longitude="100.596313000"/>
            <texture_node s="1.0000" t="1.0000"/>
        </object>
        <object class="WED_TextureNode" id="100" parent_id="96">
            <sources/>
            <viewers/>
            <children/>
            <hierarchy hidden="0" locked="0" name="unnamed entity"/>
            <point latitude="7.177200000" longitude="100.590820000"/>
            <texture_node s="0.0000" t="1.0000"/>
        </object>
        <object class="WED_OverlayImage" id="101" parent_id="76">
            <sources/>
            <viewers/>
            <children>
                <child id="102"/>
            </children>
            <hierarchy hidden="0" locked="0" name="1322213132023223"/>
            <overlay_image alpha="1.0" file_path="..\..\..\..\..\..\..\Users\Dad\wedbing\tempfilestore\1322213132023223.jpg"/>
        </object>
        <object class="WED_Ring" id="102" parent_id="101">
            <sources/>
            <viewers/>
            <children>
                <child id="103"/>
                <child id="104"/>
                <child id="105"/>
                <child id="106"/>
            </children>
            <hierarchy hidden="0" locked="0" name="Image Boundary"/>
        </object>
        <object class="WED_TextureNode" id="103" parent_id="102">
            <sources/>
            <viewers/>
            <children/>
            <hierarchy hidden="0" locked="0" name="Corner 4"/>
            <point latitude="7.188100000" longitude="100.596313000"/>
            <texture_node s="0.0000" t="0.0000"/>
        </object>
        <object class="WED_TextureNode" id="104" parent_id="102">
            <sources/>
            <viewers/>
            <children/>
            <hierarchy hidden="0" locked="0" name="unnamed entity"/>
            <point latitude="7.188100000" longitude="100.601806000"/>
            <texture_node s="1.0000" t="0.0000"/>
        </object>
        <object class="WED_TextureNode" id="105" parent_id="102">
            <sources/>
            <viewers/>
            <children/>
            <hierarchy hidden="0" locked="0" name="unnamed entity"/>
            <point latitude="7.193550000" longitude="100.601806000"/>
            <texture_node s="1.0000" t="1.0000"/>
        </object>
        <object class="WED_TextureNode" id="106" parent_id="102">
            <sources/>
            <viewers/>
            <children/>
            <hierarchy hidden="0" locked="0" name="unnamed entity"/>
            <point latitude="7.193550000" longitude="100.596313000"/>
            <texture_node s="0.0000" t="1.0000"/>
        </object>
        <object class="WED_OverlayImage" id="107" parent_id="76">
            <sources/>
            <viewers/>
            <children>
                <child id="108"/>
            </children>
            <hierarchy hidden="0" locked="0" name="1322213132201001"/>
            <overlay_image alpha="1.0" file_path="..\..\..\..\..\..\..\Users\Dad\wedbing\tempfilestore\1322213132201001.jpg"/>
        </object>
        <object class="WED_Ring" id="108" parent_id="107">
            <sources/>
            <viewers/>
            <children>
                <child id="109"/>
                <child id="110"/>
                <child id="111"/>
                <child id="112"/>
            </children>
            <hierarchy hidden="0" locked="0" name="Image Boundary"/>
        </object>
        <object class="WED_TextureNode" id="109" parent_id="108">
            <sources/>
            <viewers/>
            <children/>
            <hierarchy hidden="0" locked="0" name="Corner 4"/>
            <point latitude="7.182650000" longitude="100.596313000"/>
            <texture_node s="0.0000" t="0.0000"/>
        </object>
        <object class="WED_TextureNode" id="110" parent_id="108">
            <sources/>
            <viewers/>
            <children/>
            <hierarchy hidden="0" locked="0" name="unnamed entity"/>
            <point latitude="7.182650000" longitude="100.601806000"/>
            <texture_node s="1.0000" t="0.0000"/>
        </object>
        <object class="WED_TextureNode" id="111" parent_id="108">
            <sources/>
            <viewers/>
            <children/>
            <hierarchy hidden="0" locked="0" name="unnamed entity"/>
            <point latitude="7.188100000" longitude="100.601806000"/>
            <texture_node s="1.0000" t="1.0000"/>
        </object>
        <object class="WED_TextureNode" id="112" parent_id="108">
            <sources/>
            <viewers/>
            <children/>
            <hierarchy hidden="0" locked="0" name="unnamed entity"/>
            <point latitude="7.188100000" longitude="100.596313000"/>
            <texture_node s="0.0000" t="1.0000"/>
        </object>
        <object class="WED_OverlayImage" id="113" parent_id="76">
            <sources/>
            <viewers/>
            <children>
                <child id="114"/>
            </children>
            <hierarchy hidden="0" locked="0" name="1322213132201003"/>
            <overlay_image alpha="1.0" file_path="..\..\..\..\..\..\..\Users\Dad\wedbing\tempfilestore\1322213132201003.jpg"/>
        </object>
        <object class="WED_Ring" id="114" parent_id="113">
            <sources/>
            <viewers/>
            <children>
                <child id="115"/>
                <child id="116"/>
                <child id="117"/>
                <child id="118"/>
            </children>
            <hierarchy hidden="0" locked="0" name="Image Boundary"/>
        </object>
        <object class="WED_TextureNode" id="115" parent_id="114">
            <sources/>
            <viewers/>
            <children/>
            <hierarchy hidden="0" locked="0" name="Corner 4"/>
            <point latitude="7.177200000" longitude="100.596313000"/>
            <texture_node s="0.0000" t="0.0000"/>
        </object>
        <object class="WED_TextureNode" id="116" parent_id="114">
            <sources/>
            <viewers/>
            <children/>
            <hierarchy hidden="0" locked="0" name="unnamed entity"/>
            <point latitude="7.177200000" longitude="100.601806000"/>
            <texture_node s="1.0000" t="0.0000"/>
        </object>
        <object class="WED_TextureNode" id="117" parent_id="114">
            <sources/>
            <viewers/>
            <children/>
            <hierarchy hidden="0" locked="0" name="unnamed entity"/>
            <point latitude="7.182650000" longitude="100.601806000"/>
            <texture_node s="1.0000" t="1.0000"/>
        </object>
        <object class="WED_TextureNode" id="118" parent_id="114">
            <sources/>
            <viewers/>
            <children/>
            <hierarchy hidden="0" locked="0" name="unnamed entity"/>
            <point latitude="7.182650000" longitude="100.596313000"/>
            <texture_node s="0.0000" t="1.0000"/>
        </object>
        <object class="WED_OverlayImage" id="119" parent_id="76">
            <sources/>
            <viewers/>
            <children>
                <child id="120"/>
            </children>
            <hierarchy hidden="0" locked="0" name="1322213132201021"/>
            <overlay_image alpha="1.0" file_path="..\..\..\..\..\..\..\Users\Dad\wedbing\tempfilestore\1322213132201021.jpg"/>
        </object>
        <object class="WED_Ring" id="120" parent_id="119">
            <sources/>
            <viewers/>
            <children>
                <child id="121"/>
                <child id="122"/>
                <child id="123"/>
                <child id="124"/>
            </children>
            <hierarchy hidden="0" locked="0" name="Image Boundary"/>
        </object>
        <object class="WED_TextureNode" id="121" parent_id="120">
            <sources/>
            <viewers/>
            <children/>
            <hierarchy hidden="0" locked="0" name="Corner 4"/>
            <point latitude="7.171750000" longitude="100.596313000"/>
            <texture_node s="0.0000" t="0.0000"/>
        </object>
        <object class="WED_TextureNode" id="122" parent_id="120">
            <sources/>
            <viewers/>
            <children/>
            <hierarchy hidden="0" locked="0" name="unnamed entity"/>
            <point latitude="7.171750000" longitude="100.601806000"/>
            <texture_node s="1.0000" t="0.0000"/>
        </object>
        <object class="WED_TextureNode" id="123" parent_id="120">
            <sources/>
            <viewers/>
            <children/>
            <hierarchy hidden="0" locked="0" name="unnamed entity"/>
            <point latitude="7.177200000" longitude="100.601806000"/>
            <texture_node s="1.0000" t="1.0000"/>
        </object>
        <object class="WED_TextureNode" id="124" parent_id="120">
            <sources/>
            <viewers/>
            <children/>
            <hierarchy hidden="0" locked="0" name="unnamed entity"/>
            <point latitude="7.177200000" longitude="100.596313000"/>
            <texture_node s="0.0000" t="1.0000"/>
        </object>
        <object class="WED_OverlayImage" id="125" parent_id="76">
            <sources/>
            <viewers/>
            <children>
                <child id="126"/>
            </children>
            <hierarchy hidden="0" locked="0" name="1322213132023232"/>
            <overlay_image alpha="1.0" file_path="..\..\..\..\..\..\..\Users\Dad\wedbing\tempfilestore\1322213132023232.jpg"/>
        </object>
        <object class="WED_Ring" id="126" parent_id="125">
            <sources/>
            <viewers/>
            <children>
                <child id="127"/>
                <child id="128"/>
                <child id="129"/>
                <child id="130"/>
            </children>
            <hierarchy hidden="0" locked="0" name="Image Boundary"/>
        </object>
        <object class="WED_TextureNode" id="127" parent_id="126">
            <sources/>
            <viewers/>
            <children/>
            <hierarchy hidden="0" locked="0" name="Corner 4"/>
            <point latitude="7.188100000" longitude="100.601806000"/>
            <texture_node s="0.0000" t="0.0000"/>
        </object>
        <object class="WED_TextureNode" id="128" parent_id="126">
            <sources/>
            <viewers/>
            <children/>
            <hierarchy hidden="0" locked="0" name="unnamed entity"/>
            <point latitude="7.188100000" longitude="100.607299000"/>
            <texture_node s="1.0000" t="0.0000"/>
        </object>
        <object class="WED_TextureNode" id="129" parent_id="126">
            <sources/>
            <viewers/>
            <children/>
            <hierarchy hidden="0" locked="0" name="unnamed entity"/>
            <point latitude="7.193550000" longitude="100.607299000"/>
            <texture_node s="1.0000" t="1.0000"/>
        </object>
        <object class="WED_TextureNode" id="130" parent_id="126">
            <sources/>
            <viewers/>
            <children/>
            <hierarchy hidden="0" locked="0" name="unnamed entity"/>
            <point latitude="7.193550000" longitude="100.601806000"/>
            <texture_node s="0.0000" t="1.0000"/>
        </object>
        <object class="WED_OverlayImage" id="131" parent_id="76">
            <sources/>
            <viewers/>
            <children>
                <child id="132"/>
            </children>
            <hierarchy hidden="0" locked="0" name="1322213132201010"/>
            <overlay_image alpha="1.0" file_path="..\..\..\..\..\..\..\Users\Dad\wedbing\tempfilestore\1322213132201010.jpg"/>
        </object>
        <object class="WED_Ring" id="132" parent_id="131">
            <sources/>
            <viewers/>
            <children>
                <child id="133"/>
                <child id="134"/>
                <child id="135"/>
                <child id="136"/>
            </children>
            <hierarchy hidden="0" locked="0" name="Image Boundary"/>
        </object>
        <object class="WED_TextureNode" id="133" parent_id="132">
            <sources/>
            <viewers/>
            <children/>
            <hierarchy hidden="0" locked="0" name="Corner 4"/>
            <point latitude="7.182650000" longitude="100.601806000"/>
            <texture_node s="0.0000" t="0.0000"/>
        </object>
        <object class="WED_TextureNode" id="134" parent_id="132">
            <sources/>
            <viewers/>
            <children/>
            <hierarchy hidden="0" locked="0" name="unnamed entity"/>
            <point latitude="7.182650000" longitude="100.607299000"/>
            <texture_node s="1.0000" t="0.0000"/>
        </object>
        <object class="WED_TextureNode" id="135" parent_id="132">
            <sources/>
            <viewers/>
            <children/>
            <hierarchy hidden="0" locked="0" name="unnamed entity"/>
            <point latitude="7.188100000" longitude="100.607299000"/>
            <texture_node s="1.0000" t="1.0000"/>
        </object>
        <object class="WED_TextureNode" id="136" parent_id="132">
            <sources/>
            <viewers/>
            <children/>
            <hierarchy hidden="0" locked="0" name="unnamed entity"/>
            <point latitude="7.188100000" longitude="100.601806000"/>
            <texture_node s="0.0000" t="1.0000"/>
        </object>
        <object class="WED_OverlayImage" id="137" parent_id="76">
            <sources/>
            <viewers/>
            <children>
                <child id="138"/>
            </children>
            <hierarchy hidden="0" locked="0" name="1322213132201012"/>
            <overlay_image alpha="1.0" file_path="..\..\..\..\..\..\..\Users\Dad\wedbing\tempfilestore\1322213132201012.jpg"/>
        </object>
        <object class="WED_Ring" id="138" parent_id="137">
            <sources/>
            <viewers/>
            <children>
                <child id="139"/>
                <child id="140"/>
                <child id="141"/>
                <child id="142"/>
            </children>
            <hierarchy hidden="0" locked="0" name="Image Boundary"/>
        </object>
        <object class="WED_TextureNode" id="139" parent_id="138">
            <sources/>
            <viewers/>
            <children/>
            <hierarchy hidden="0" locked="0" name="Corner 4"/>
            <point latitude="7.177200000" longitude="100.601806000"/>
            <texture_node s="0.0000" t="0.0000"/>
        </object>
        <object class="WED_TextureNode" id="140" parent_id="138">
            <sources/>
            <viewers/>
            <children/>
            <hierarchy hidden="0" locked="0" name="unnamed entity"/>
            <point latitude="7.177200000" longitude="100.607299000"/>
            <texture_node s="1.0000" t="0.0000"/>
        </object>
        <object class="WED_TextureNode" id="141" parent_id="138">
            <sources/>
            <viewers/>
            <children/>
            <hierarchy hidden="0" locked="0" name="unnamed entity"/>
            <point latitude="7.182650000" longitude="100.607299000"/>
            <texture_node s="1.0000" t="1.0000"/>
        </object>
        <object class="WED_TextureNode" id="142" parent_id="138">
            <sources/>
            <viewers/>
            <children/>
            <hierarchy hidden="0" locked="0" name="unnamed entity"/>
            <point latitude="7.182650000" longitude="100.601806000"/>
            <texture_node s="0.0000" t="1.0000"/>
        </object>
        <object class="WED_OverlayImage" id="143" parent_id="76">
            <sources/>
            <viewers/>
            <children>
                <child id="144"/>
            </children>
            <hierarchy hidden="0" locked="0" name="1322213132201030"/>
            <overlay_image alpha="1.0" file_path="..\..\..\..\..\..\..\Users\Dad\wedbing\tempfilestore\1322213132201030.jpg"/>
        </object>
        <object class="WED_Ring" id="144" parent_id="143">
            <sources/>
            <viewers/>
            <children>
                <child id="145"/>
                <child id="146"/>
                <child id="147"/>
                <child id="148"/>
            </children>
            <hierarchy hidden="0" locked="0" name="Image Boundary"/>
        </object>
        <object class="WED_TextureNode" id="145" parent_id="144">
            <sources/>
            <viewers/>
            <children/>
            <hierarchy hidden="0" locked="0" name="Corner 4"/>
            <point latitude="7.171750000" longitude="100.601806000"/>
            <texture_node s="0.0000" t="0.0000"/>
        </object>
        <object class="WED_TextureNode" id="146" parent_id="144">
            <sources/>
            <viewers/>
            <children/>
            <hierarchy hidden="0" locked="0" name="unnamed entity"/>
            <point latitude="7.171750000" longitude="100.607299000"/>
            <texture_node s="1.0000" t="0.0000"/>
        </object>
        <object class="WED_TextureNode" id="147" parent_id="144">
            <sources/>
            <viewers/>
            <children/>
            <hierarchy hidden="0" locked="0" name="unnamed entity"/>
            <point latitude="7.177200000" longitude="100.607299000"/>
            <texture_node s="1.0000" t="1.0000"/>
        </object>
        <object class="WED_TextureNode" id="148" parent_id="144">
            <sources/>
            <viewers/>
            <children/>
            <hierarchy hidden="0" locked="0" name="unnamed entity"/>
            <point latitude="7.177200000" longitude="100.601806000"/>
            <texture_node s="0.0000" t="1.0000"/>
        </object>
        <object class="WED_OverlayImage" id="149" parent_id="76">
            <sources/>
            <viewers/>
            <children>
                <child id="150"/>
            </children>
            <hierarchy hidden="0" locked="0" name="1322213132023233"/>
            <overlay_image alpha="1.0" file_path="..\..\..\..\..\..\..\Users\Dad\wedbing\tempfilestore\1322213132023233.jpg"/>
        </object>
        <object class="WED_Ring" id="150" parent_id="149">
            <sources/>
            <viewers/>
            <children>
                <child id="151"/>
                <child id="152"/>
                <child id="153"/>
                <child id="154"/>
            </children>
            <hierarchy hidden="0" locked="0" name="Image Boundary"/>
        </object>
        <object class="WED_TextureNode" id="151" parent_id="150">
            <sources/>
            <viewers/>
            <children/>
            <hierarchy hidden="0" locked="0" name="Corner 4"/>
            <point latitude="7.188100000" longitude="100.607299000"/>
            <texture_node s="0.0000" t="0.0000"/>
        </object>
        <object class="WED_TextureNode" id="152" parent_id="150">
            <sources/>
            <viewers/>
            <children/>
            <hierarchy hidden="0" locked="0" name="unnamed entity"/>
            <point latitude="7.188100000" longitude="100.612792000"/>
            <texture_node s="1.0000" t="0.0000"/>
        </object>
        <object class="WED_TextureNode" id="153" parent_id="150">
            <sources/>
            <viewers/>
            <children/>
            <hierarchy hidden="0" locked="0" name="unnamed entity"/>
            <point latitude="7.193550000" longitude="100.612792000"/>
            <texture_node s="1.0000" t="1.0000"/>
        </object>
        <object class="WED_TextureNode" id="154" parent_id="150">
            <sources/>
            <viewers/>
            <children/>
            <hierarchy hidden="0" locked="0" name="unnamed entity"/>
            <point latitude="7.193550000" longitude="100.607299000"/>
            <texture_node s="0.0000" t="1.0000"/>
        </object>
        <object class="WED_OverlayImage" id="155" parent_id="76">
            <sources/>
            <viewers/>
            <children>
                <child id="156"/>
            </children>
            <hierarchy hidden="0" locked="0" name="1322213132201011"/>
            <overlay_image alpha="1.0" file_path="..\..\..\..\..\..\..\Users\Dad\wedbing\tempfilestore\1322213132201011.jpg"/>
        </object>
        <object class="WED_Ring" id="156" parent_id="155">
            <sources/>
            <viewers/>
            <children>
                <child id="157"/>
                <child id="158"/>
                <child id="159"/>
                <child id="160"/>
            </children>
            <hierarchy hidden="0" locked="0" name="Image Boundary"/>
        </object>
        <object class="WED_TextureNode" id="157" parent_id="156">
            <sources/>
            <viewers/>
            <children/>
            <hierarchy hidden="0" locked="0" name="Corner 4"/>
            <point latitude="7.182650000" longitude="100.607299000"/>
            <texture_node s="0.0000" t="0.0000"/>
        </object>
        <object class="WED_TextureNode" id="158" parent_id="156">
            <sources/>
            <viewers/>
            <children/>
            <hierarchy hidden="0" locked="0" name="unnamed entity"/>
            <point latitude="7.182650000" longitude="100.612792000"/>
            <texture_node s="1.0000" t="0.0000"/>
        </object>
        <object class="WED_TextureNode" id="159" parent_id="156">
            <sources/>
            <viewers/>
            <children/>
            <hierarchy hidden="0" locked="0" name="unnamed entity"/>
            <point latitude="7.188100000" longitude="100.612792000"/>
            <texture_node s="1.0000" t="1.0000"/>
        </object>
        <object class="WED_TextureNode" id="160" parent_id="156">
            <sources/>
            <viewers/>
            <children/>
            <hierarchy hidden="0" locked="0" name="unnamed entity"/>
            <point latitude="7.188100000" longitude="100.607299000"/>
            <texture_node s="0.0000" t="1.0000"/>
        </object>
        <object class="WED_OverlayImage" id="161" parent_id="76">
            <sources/>
            <viewers/>
            <children>
                <child id="162"/>
            </children>
            <hierarchy hidden="0" locked="0" name="1322213132201013"/>
            <overlay_image alpha="1.0" file_path="..\..\..\..\..\..\..\Users\Dad\wedbing\tempfilestore\1322213132201013.jpg"/>
        </object>
        <object class="WED_Ring" id="162" parent_id="161">
            <sources/>
            <viewers/>
            <children>
                <child id="163"/>
                <child id="164"/>
                <child id="165"/>
                <child id="166"/>
            </children>
            <hierarchy hidden="0" locked="0" name="Image Boundary"/>
        </object>
        <object class="WED_TextureNode" id="163" parent_id="162">
            <sources/>
            <viewers/>
            <children/>
            <hierarchy hidden="0" locked="0" name="Corner 4"/>
            <point latitude="7.177200000" longitude="100.607299000"/>
            <texture_node s="0.0000" t="0.0000"/>
        </object>
        <object class="WED_TextureNode" id="164" parent_id="162">
            <sources/>
            <viewers/>
            <children/>
            <hierarchy hidden="0" locked="0" name="unnamed entity"/>
            <point latitude="7.177200000" longitude="100.612792000"/>
            <texture_node s="1.0000" t="0.0000"/>
        </object>
        <object class="WED_TextureNode" id="165" parent_id="162">
            <sources/>
            <viewers/>
            <children/>
            <hierarchy hidden="0" locked="0" name="unnamed entity"/>
            <point latitude="7.182650000" longitude="100.612792000"/>
            <texture_node s="1.0000" t="1.0000"/>
        </object>
        <object class="WED_TextureNode" id="166" parent_id="162">
            <sources/>
            <viewers/>
            <children/>
            <hierarchy hidden="0" locked="0" name="unnamed entity"/>
            <point latitude="7.182650000" longitude="100.607299000"/>
            <texture_node s="0.0000" t="1.0000"/>
        </object>
        <object class="WED_OverlayImage" id="167" parent_id="76">
            <sources/>
            <viewers/>
            <children>
                <child id="168"/>
            </children>
            <hierarchy hidden="0" locked="0" name="1322213132201031"/>
            <overlay_image alpha="1.0" file_path="..\..\..\..\..\..\..\Users\Dad\wedbing\tempfilestore\1322213132201031.jpg"/>
        </object>
        <object class="WED_Ring" id="168" parent_id="167">
            <sources/>
            <viewers/>
            <children>
                <child id="169"/>
                <child id="170"/>
                <child id="171"/>
                <child id="172"/>
            </children>
            <hierarchy hidden="0" locked="0" name="Image Boundary"/>
        </object>
        <object class="WED_TextureNode" id="169" parent_id="168">
            <sources/>
            <viewers/>
            <children/>
            <hierarchy hidden="0" locked="0" name="Corner 4"/>
            <point latitude="7.171750000" longitude="100.607299000"/>
            <texture_node s="0.0000" t="0.0000"/>
        </object>
        <object class="WED_TextureNode" id="170" parent_id="168">
            <sources/>
            <viewers/>
            <children/>
            <hierarchy hidden="0" locked="0" name="unnamed entity"/>
            <point latitude="7.171750000" longitude="100.612792000"/>
            <texture_node s="1.0000" t="0.0000"/>
        </object>
        <object class="WED_TextureNode" id="171" parent_id="168">
            <sources/>
            <viewers/>
            <children/>
            <hierarchy hidden="0" locked="0" name="unnamed entity"/>
            <point latitude="7.177200000" longitude="100.612792000"/>
            <texture_node s="1.0000" t="1.0000"/>
        </object>
        <object class="WED_TextureNode" id="172" parent_id="168">
            <sources/>
            <viewers/>
            <children/>
            <hierarchy hidden="0" locked="0" name="unnamed entity"/>
            <point latitude="7.177200000" longitude="100.607299000"/>
            <texture_node s="0.0000" t="1.0000"/>
        </object>
        <object class="WED_OverlayImage" id="173" parent_id="76">
            <sources/>
            <viewers/>
            <children>
                <child id="174"/>
            </children>
            <hierarchy hidden="0" locked="0" name="1322213132023322"/>
            <overlay_image alpha="1.0" file_path="..\..\..\..\..\..\..\Users\Dad\wedbing\tempfilestore\1322213132023322.jpg"/>
        </object>
        <object class="WED_Ring" id="174" parent_id="173">
            <sources/>
            <viewers/>
            <children>
                <child id="175"/>
                <child id="176"/>
                <child id="177"/>
                <child id="178"/>
            </children>
            <hierarchy hidden="0" locked="0" name="Image Boundary"/>
        </object>
        <object class="WED_TextureNode" id="175" parent_id="174">
            <sources/>
            <viewers/>
            <children/>
            <hierarchy hidden="0" locked="0" name="Corner 4"/>
            <point latitude="7.188100000" longitude="100.612792000"/>
            <texture_node s="0.0000" t="0.0000"/>
        </object>
        <object class="WED_TextureNode" id="176" parent_id="174">
            <sources/>
            <viewers/>
            <children/>
            <hierarchy hidden="0" locked="0" name="unnamed entity"/>
            <point latitude="7.188100000" longitude="100.618286000"/>
            <texture_node s="1.0000" t="0.0000"/>
        </object>
        <object class="WED_TextureNode" id="177" parent_id="174">
            <sources/>
            <viewers/>
            <children/>
            <hierarchy hidden="0" locked="0" name="unnamed entity"/>
            <point latitude="7.193550000" longitude="100.618286000"/>
            <texture_node s="1.0000" t="1.0000"/>
        </object>
        <object class="WED_TextureNode" id="178" parent_id="174">
            <sources/>
            <viewers/>
            <children/>
            <hierarchy hidden="0" locked="0" name="unnamed entity"/>
            <point latitude="7.193550000" longitude="100.612792000"/>
            <texture_node s="0.0000" t="1.0000"/>
        </object>
        <object class="WED_OverlayImage" id="179" parent_id="76">
            <sources/>
            <viewers/>
            <children>
                <child id="180"/>
            </children>
            <hierarchy hidden="0" locked="0" name="1322213132201100"/>
            <overlay_image alpha="1.0" file_path="..\..\..\..\..\..\..\Users\Dad\wedbing\tempfilestore\1322213132201100.jpg"/>
        </object>
        <object class="WED_Ring" id="180" parent_id="179">
            <sources/>
            <viewers/>
            <children>
                <child id="181"/>
                <child id="182"/>
                <child id="183"/>
                <child id="184"/>
            </children>
            <hierarchy hidden="0" locked="0" name="Image Boundary"/>
        </object>
        <object class="WED_TextureNode" id="181" parent_id="180">
            <sources/>
            <viewers/>
            <children/>
            <hierarchy hidden="0" locked="0" name="Corner 4"/>
            <point latitude="7.182650000" longitude="100.612792000"/>
            <texture_node s="0.0000" t="0.0000"/>
        </object>
        <object class="WED_TextureNode" id="182" parent_id="180">
            <sources/>
            <viewers/>
            <children/>
            <hierarchy hidden="0" locked="0" name="unnamed entity"/>
            <point latitude="7.182650000" longitude="100.618286000"/>
            <texture_node s="1.0000" t="0.0000"/>
        </object>
        <object class="WED_TextureNode" id="183" parent_id="180">
            <sources/>
            <viewers/>
            <children/>
            <hierarchy hidden="0" locked="0" name="unnamed entity"/>
            <point latitude="7.188100000" longitude="100.618286000"/>
            <texture_node s="1.0000" t="1.0000"/>
        </object>
        <object class="WED_TextureNode" id="184" parent_id="180">
            <sources/>
            <viewers/>
            <children/>
            <hierarchy hidden="0" locked="0" name="unnamed entity"/>
            <point latitude="7.188100000" longitude="100.612792000"/>
            <texture_node s="0.0000" t="1.0000"/>
        </object>
        <object class="WED_OverlayImage" id="185" parent_id="76">
            <sources/>
            <viewers/>
            <children>
                <child id="186"/>
            </children>
            <hierarchy hidden="0" locked="0" name="1322213132201102"/>
            <overlay_image alpha="1.0" file_path="..\..\..\..\..\..\..\Users\Dad\wedbing\tempfilestore\1322213132201102.jpg"/>
        </object>
        <object class="WED_Ring" id="186" parent_id="185">
            <sources/>
            <viewers/>
            <children>
                <child id="187"/>
                <child id="188"/>
                <child id="189"/>
                <child id="190"/>
            </children>
            <hierarchy hidden="0" locked="0" name="Image Boundary"/>
        </object>
        <object class="WED_TextureNode" id="187" parent_id="186">
            <sources/>
            <viewers/>
            <children/>
            <hierarchy hidden="0" locked="0" name="Corner 4"/>
            <point latitude="7.177200000" longitude="100.612792000"/>
            <texture_node s="0.0000" t="0.0000"/>
        </object>
        <object class="WED_TextureNode" id="188" parent_id="186">
            <sources/>
            <viewers/>
            <children/>
            <hierarchy hidden="0" locked="0" name="unnamed entity"/>
            <point latitude="7.177200000" longitude="100.618286000"/>
            <texture_node s="1.0000" t="0.0000"/>
        </object>
        <object class="WED_TextureNode" id="189" parent_id="186">
            <sources/>
            <viewers/>
            <children/>
            <hierarchy hidden="0" locked="0" name="unnamed entity"/>
            <point latitude="7.182650000" longitude="100.618286000"/>
            <texture_node s="1.0000" t="1.0000"/>
        </object>
        <object class="WED_TextureNode" id="190" parent_id="186">
            <sources/>
            <viewers/>
            <children/>
            <hierarchy hidden="0" locked="0" name="unnamed entity"/>
            <point latitude="7.182650000" longitude="100.612792000"/>
            <texture_node s="0.0000" t="1.0000"/>
        </object>
        <object class="WED_OverlayImage" id="191" parent_id="76">
            <sources/>
            <viewers/>
            <children>
                <child id="192"/>
            </children>
            <hierarchy hidden="0" locked="0" name="1322213132201120"/>
            <overlay_image alpha="1.0" file_path="..\..\..\..\..\..\..\Users\Dad\wedbing\tempfilestore\1322213132201120.jpg"/>
        </object>
        <object class="WED_Ring" id="192" parent_id="191">
            <sources/>
            <viewers/>
            <children>
                <child id="193"/>
                <child id="194"/>
                <child id="195"/>
                <child id="196"/>
            </children>
            <hierarchy hidden="0" locked="0" name="Image Boundary"/>
        </object>
        <object class="WED_TextureNode" id="193" parent_id="192">
            <sources/>
            <viewers/>
            <children/>
            <hierarchy hidden="0" locked="0" name="Corner 4"/>
            <point latitude="7.171750000" longitude="100.612792000"/>
            <texture_node s="0.0000" t="0.0000"/>
        </object>
        <object class="WED_TextureNode" id="194" parent_id="192">
            <sources/>
            <viewers/>
            <children/>
            <hierarchy hidden="0" locked="0" name="unnamed entity"/>
            <point latitude="7.171750000" longitude="100.618286000"/>
            <texture_node s="1.0000" t="0.0000"/>
        </object>
        <object class="WED_TextureNode" id="195" parent_id="192">
            <sources/>
            <viewers/>
            <children/>
            <hierarchy hidden="0" locked="0" name="unnamed entity"/>
            <point latitude="7.177200000" longitude="100.618286000"/>
            <texture_node s="1.0000" t="1.0000"/>
        </object>
        <object class="WED_TextureNode" id="196" parent_id="192">
            <sources/>
            <viewers/>
            <children/>
            <hierarchy hidden="0" locked="0" name="unnamed entity"/>
            <point latitude="7.177200000" longitude="100.612792000"/>
            <texture_node s="0.0000" t="1.0000"/>
        </object>
        <object class="WED_OverlayImage" id="197" parent_id="76">
            <sources/>
            <viewers/>
            <children>
                <child id="198"/>
            </children>
            <hierarchy hidden="0" locked="0" name="1322213132023323"/>
            <overlay_image alpha="1.0" file_path="..\..\..\..\..\..\..\Users\Dad\wedbing\tempfilestore\1322213132023323.jpg"/>
        </object>
        <object class="WED_Ring" id="198" parent_id="197">
            <sources/>
            <viewers/>
            <children>
                <child id="199"/>
                <child id="200"/>
                <child id="201"/>
                <child id="202"/>
            </children>
            <hierarchy hidden="0" locked="0" name="Image Boundary"/>
        </object>
        <object class="WED_TextureNode" id="199" parent_id="198">
            <sources/>
            <viewers/>
            <children/>
            <hierarchy hidden="0" locked="0" name="Corner 4"/>
            <point latitude="7.188100000" longitude="100.618286000"/>
            <texture_node s="0.0000" t="0.0000"/>
        </object>
        <object class="WED_TextureNode" id="200" parent_id="198">
            <sources/>
            <viewers/>
            <children/>
            <hierarchy hidden="0" locked="0" name="unnamed entity"/>
            <point latitude="7.188100000" longitude="100.623779000"/>
            <texture_node s="1.0000" t="0.0000"/>
        </object>
        <object class="WED_TextureNode" id="201" parent_id="198">
            <sources/>
            <viewers/>
            <children/>
            <hierarchy hidden="0" locked="0" name="unnamed entity"/>
            <point latitude="7.193550000" longitude="100.623779000"/>
            <texture_node s="1.0000" t="1.0000"/>
        </object>
        <object class="WED_TextureNode" id="202" parent_id="198">
            <sources/>
            <viewers/>
            <children/>
            <hierarchy hidden="0" locked="0" name="unnamed entity"/>
            <point latitude="7.193550000" longitude="100.618286000"/>
            <texture_node s="0.0000" t="1.0000"/>
        </object>
        <object class="WED_OverlayImage" id="203" parent_id="76">
            <sources/>
            <viewers/>
            <children>
                <child id="204"/>
            </children>
            <hierarchy hidden="0" locked="0" name="1322213132201101"/>
            <overlay_image alpha="1.0" file_path="..\..\..\..\..\..\..\Users\Dad\wedbing\tempfilestore\1322213132201101.jpg"/>
        </object>
        <object class="WED_Ring" id="204" parent_id="203">
            <sources/>
            <viewers/>
            <children>
                <child id="205"/>
                <child id="206"/>
                <child id="207"/>
                <child id="208"/>
            </children>
            <hierarchy hidden="0" locked="0" name="Image Boundary"/>
        </object>
        <object class="WED_TextureNode" id="205" parent_id="204">
            <sources/>
            <viewers/>
            <children/>
            <hierarchy hidden="0" locked="0" name="Corner 4"/>
            <point latitude="7.182650000" longitude="100.618286000"/>
            <texture_node s="0.0000" t="0.0000"/>
        </object>
        <object class="WED_TextureNode" id="206" parent_id="204">
            <sources/>
            <viewers/>
            <children/>
            <hierarchy hidden="0" locked="0" name="unnamed entity"/>
            <point latitude="7.182650000" longitude="100.623779000"/>
            <texture_node s="1.0000" t="0.0000"/>
        </object>
        <object class="WED_TextureNode" id="207" parent_id="204">
            <sources/>
            <viewers/>
            <children/>
            <hierarchy hidden="0" locked="0" name="unnamed entity"/>
            <point latitude="7.188100000" longitude="100.623779000"/>
            <texture_node s="1.0000" t="1.0000"/>
        </object>
        <object class="WED_TextureNode" id="208" parent_id="204">
            <sources/>
            <viewers/>
            <children/>
            <hierarchy hidden="0" locked="0" name="unnamed entity"/>
            <point latitude="7.188100000" longitude="100.618286000"/>
            <texture_node s="0.0000" t="1.0000"/>
        </object>
        <object class="WED_OverlayImage" id="209" parent_id="76">
            <sources/>
            <viewers/>
            <children>
                <child id="210"/>
            </children>
            <hierarchy hidden="0" locked="0" name="1322213132201103"/>
            <overlay_image alpha="1.0" file_path="..\..\..\..\..\..\..\Users\Dad\wedbing\tempfilestore\1322213132201103.jpg"/>
        </object>
        <object class="WED_Ring" id="210" parent_id="209">
            <sources/>
            <viewers/>
            <children>
                <child id="211"/>
                <child id="212"/>
                <child id="213"/>
                <child id="214"/>
            </children>
            <hierarchy hidden="0" locked="0" name="Image Boundary"/>
        </object>
        <object class="WED_TextureNode" id="211" parent_id="210">
            <sources/>
            <viewers/>
            <children/>
            <hierarchy hidden="0" locked="0" name="Corner 4"/>
            <point latitude="7.177200000" longitude="100.618286000"/>
            <texture_node s="0.0000" t="0.0000"/>
        </object>
        <object class="WED_TextureNode" id="212" parent_id="210">
            <sources/>
            <viewers/>
            <children/>
            <hierarchy hidden="0" locked="0" name="unnamed entity"/>
            <point latitude="7.177200000" longitude="100.623779000"/>
            <texture_node s="1.0000" t="0.0000"/>
        </object>
        <object class="WED_TextureNode" id="213" parent_id="210">
            <sources/>
            <viewers/>
            <children/>
            <hierarchy hidden="0" locked="0" name="unnamed entity"/>
            <point latitude="7.182650000" longitude="100.623779000"/>
            <texture_node s="1.0000" t="1.0000"/>
        </object>
        <object class="WED_TextureNode" id="214" parent_id="210">
            <sources/>
            <viewers/>
            <children/>
            <hierarchy hidden="0" locked="0" name="unnamed entity"/>
            <point latitude="7.182650000" longitude="100.618286000"/>
            <texture_node s="0.0000" t="1.0000"/>
        </object>
        <object class="WED_OverlayImage" id="215" parent_id="76">
            <sources/>
            <viewers/>
            <children>
                <child id="216"/>
            </children>
            <hierarchy hidden="0" locked="0" name="1322213132201121"/>
            <overlay_image alpha="1.0" file_path="..\..\..\..\..\..\..\Users\Dad\wedbing\tempfilestore\1322213132201121.jpg"/>
        </object>
        <object class="WED_Ring" id="216" parent_id="215">
            <sources/>
            <viewers/>
            <children>
                <child id="217"/>
                <child id="218"/>
                <child id="219"/>
                <child id="220"/>
            </children>
            <hierarchy hidden="0" locked="0" name="Image Boundary"/>
        </object>
        <object class="WED_TextureNode" id="217" parent_id="216">
            <sources/>
            <viewers/>
            <children/>
            <hierarchy hidden="0" locked="0" name="Corner 4"/>
            <point latitude="7.171750000" longitude="100.618286000"/>
            <texture_node s="0.0000" t="0.0000"/>
        </object>
        <object class="WED_TextureNode" id="218" parent_id="216">
            <sources/>
            <viewers/>
            <children/>
            <hierarchy hidden="0" locked="0" name="unnamed entity"/>
            <point latitude="7.171750000" longitude="100.623779000"/>
            <texture_node s="1.0000" t="0.0000"/>
        </object>
        <object class="WED_TextureNode" id="219" parent_id="216">
            <sources/>
            <viewers/>
            <children/>
            <hierarchy hidden="0" locked="0" name="unnamed entity"/>
            <point latitude="7.177200000" longitude="100.623779000"/>
            <texture_node s="1.0000" t="1.0000"/>
        </object>
        <object class="WED_TextureNode" id="220" parent_id="216">
            <sources/>
            <viewers/>
            <children/>
            <hierarchy hidden="0" locked="0" name="unnamed entity"/>
            <point latitude="7.177200000" longitude="100.618286000"/>
            <texture_node s="0.0000" t="1.0000"/>
        </object>
        <object class="WED_AirportNode" id="221" parent_id="34">
            <sources/>
            <viewers/>
            <children/>
            <hierarchy hidden="0" locked="0" name="unnamed entity"/>
            <point ctrl_latitude_hi="0.000022008" ctrl_latitude_lo="-0.000022008" ctrl_longitude_hi="0.000074864" ctrl_longitude_lo="-0.000074864" latitude="7.185410132" longitude="100.608652351" split="0"/>
            <markings/>
        </object>
        <object class="WED_AirportNode" id="222" parent_id="34">
            <sources/>
            <viewers/>
            <children/>
            <hierarchy hidden="0" locked="0" name="unnamed entity"/>
            <point ctrl_latitude_hi="-0.000115541" ctrl_latitude_lo="0.000115541" ctrl_longitude_hi="-0.000019409" ctrl_longitude_lo="0.000019409" latitude="7.185522558" longitude="100.608604430" split="0"/>
            <markings/>
        </object>
        <object class="WED_AirportNode" id="223" parent_id="22">
            <sources/>
            <viewers/>
            <children/>
            <hierarchy hidden="0" locked="0" name="unnamed entity"/>
            <point ctrl_latitude_hi="0.000000000" ctrl_latitude_lo="0.000000000" ctrl_longitude_hi="0.000000000" ctrl_longitude_lo="0.000000000" latitude="7.186152849" longitude="100.606453807" split="0"/>
            <markings/>
        </object>
        <object class="WED_AirportNode" id="224" parent_id="40">
            <sources/>
            <viewers/>
            <children/>
            <hierarchy hidden="0" locked="0" name="unnamed entity"/>
            <point ctrl_latitude_hi="0.000000000" ctrl_latitude_lo="-0.000000000" ctrl_longitude_hi="0.000132241" ctrl_longitude_lo="-0.000132241" latitude="7.186325742" longitude="100.607711952" split="0"/>
            <markings/>
        </object>
        <object class="WED_AirportNode" id="225" parent_id="40">
            <sources/>
            <viewers/>
            <children/>
            <hierarchy hidden="0" locked="0" name="unnamed entity"/>
            <point ctrl_latitude_hi="-0.000131202" ctrl_latitude_lo="0.000131202" ctrl_longitude_hi="-0.000040247" ctrl_longitude_lo="0.000040247" latitude="7.186564990" longitude="100.607512848" split="0"/>
            <markings/>
        </object>
        <object class="WED_AirportNode" id="226" parent_id="28">
            <sources/>
            <viewers/>
            <children/>
            <hierarchy hidden="0" locked="0" name="unnamed entity"/>
            <point ctrl_latitude_hi="-0.000114899" ctrl_latitude_lo="0.000114899" ctrl_longitude_hi="-0.000025325" ctrl_longitude_lo="0.000025325" latitude="7.188385468" longitude="100.605726980" split="0"/>
            <markings/>
        </object>
        <object class="WED_AirportNode" id="231" parent_id="28">
            <sources/>
            <viewers/>
            <children/>
            <hierarchy hidden="0" locked="0" name="unnamed entity"/>
            <point ctrl_latitude_hi="0.000000000" ctrl_latitude_lo="0.000000000" ctrl_longitude_hi="0.000000000" ctrl_longitude_lo="0.000000000" latitude="7.186968889" longitude="100.605487793" split="0"/>
            <markings/>
        </object>
        <object class="WED_AirportNode" id="232" parent_id="28">
            <sources/>
            <viewers/>
            <children/>
            <hierarchy hidden="0" locked="0" name="unnamed entity"/>
            <point ctrl_latitude_hi="0.000093754" ctrl_latitude_lo="-0.000093754" ctrl_longitude_hi="-0.000027949" ctrl_longitude_lo="0.000027949" latitude="7.187103710" longitude="100.605428858" split="0"/>
            <markings/>
        </object>
        <object class="WED_AirportChain" id="233" parent_id="234">
            <sources/>
            <viewers/>
            <children>
                <child id="235"/>
                <child id="236"/>
                <child id="237"/>
                <child id="238"/>
                <child id="239"/>
                <child id="372"/>
                <child id="371"/>
                <child id="240"/>
                <child id="356"/>
                <child id="370"/>
            </children>
            <hierarchy hidden="0" locked="0" name="Taxiway 1 Outer Ring"/>
            <airport_chain closed="1"/>
        </object>
        <object class="WED_Taxiway" id="234" parent_id="15">
            <sources/>
            <viewers/>
            <children>
                <child id="233"/>
            </children>
            <hierarchy hidden="0" locked="0" name="New Taxiway 1"/>
            <taxiway heading="0.00" roughness="0.00" surface="Concrete"/>
        </object>
        <object class="WED_AirportNode" id="235" parent_id="233">
            <sources/>
            <viewers/>
            <children/>
            <hierarchy hidden="0" locked="0" name="Node 1"/>
            <point ctrl_latitude_hi="0.000031324" ctrl_latitude_lo="-0.000031324" ctrl_longitude_hi="0.000006500" ctrl_longitude_lo="-0.000006500" latitude="7.186582270" longitude="100.606008070" split="0"/>
            <markings/>
        </object>
        <object class="WED_AirportNode" id="236" parent_id="233">
            <sources/>
            <viewers/>
            <children/>
            <hierarchy hidden="0" locked="0" name="Node 2"/>
            <point ctrl_latitude_hi="0.000042783" ctrl_latitude_lo="-0.000042783" ctrl_longitude_hi="0.000186862" ctrl_longitude_lo="-0.000186862" latitude="7.187303631" longitude="100.606839298" split="0"/>
            <markings/>
        </object>
        <object class="WED_AirportNode" id="237" parent_id="233">
            <sources/>
            <viewers/>
            <children/>
            <hierarchy hidden="0" locked="0" name="Node 3"/>
            <point ctrl_latitude_hi="0.000000000" ctrl_latitude_lo="0.000000000" ctrl_longitude_hi="0.000000000" ctrl_longitude_lo="0.000000000" latitude="7.187351612" longitude="100.607003540" split="0"/>
            <markings/>
        </object>
        <object class="WED_AirportNode" id="238" parent_id="233">
            <sources/>
            <viewers/>
            <children/>
            <hierarchy hidden="0" locked="0" name="Node 4"/>
            <point ctrl_latitude_hi="-0.000072274" ctrl_latitude_lo="0.000072274" ctrl_longitude_hi="0.000007564" ctrl_longitude_lo="-0.000007564" latitude="7.187679173" longitude="100.606609314" split="0"/>
            <markings/>
        </object>
        <object class="WED_AirportNode" id="239" parent_id="233">
            <sources/>
            <viewers/>
            <children/>
            <hierarchy hidden="0" locked="0" name="Node 5"/>
            <point ctrl_latitude_hi="-0.000078779" ctrl_latitude_lo="0.000161626" ctrl_longitude_hi="-0.000062806" ctrl_longitude_lo="0.000043122" latitude="7.187398705" longitude="100.606623688" split="1"/>
            <markings/>
        </object>
        <object class="WED_AirportNode" id="240" parent_id="233">
            <sources/>
            <viewers/>
            <children/>
            <hierarchy hidden="0" locked="0" name="Node 6"/>
            <point ctrl_latitude_hi="-0.000020632" ctrl_latitude_lo="0.000011476" ctrl_longitude_hi="-0.000034660" ctrl_longitude_lo="0.000019278" latitude="7.186716802" longitude="100.605900777" split="1"/>
            <markings/>
        </object>
        <object class="WED_RampPosition" id="241" parent_id="10">
            <sources/>
            <viewers>
                <viewer id="579"/>
            </viewers>
            <children/>
            <hierarchy hidden="0" locked="0" name="Platform 1"/>
            <point heading="79.29" latitude="7.186779954" longitude="100.605317344"/>
            <ramp_start airlines="" ramp_op_type="General Aviation" traffic="14" type="Tie-Down" width="C"/>
        </object>
        <object class="WED_RampPosition" id="242" parent_id="10">
            <sources/>
            <viewers>
                <viewer id="582"/>
            </viewers>
            <children/>
            <hierarchy hidden="0" locked="0" name="Platform 2"/>
            <point heading="45.62" latitude="7.186516123" longitude="100.605574319"/>
            <ramp_start airlines="" ramp_op_type="General Aviation" traffic="14" type="Tie-Down" width="C"/>
        </object>
        <object class="WED_TaxiRouteNode" id="244" parent_id="247">
            <sources/>
            <viewers>
                <viewer id="245"/>
            </viewers>
            <children/>
            <hierarchy hidden="0" locked="0" name="N_start"/>
            <point latitude="7.181741807" longitude="100.612827491"/>
        </object>
        <object class="WED_TaxiRoute" id="245" parent_id="247">
            <sources>
                <source id="244"/>
                <source id="250"/>
            </sources>
            <viewers/>
            <children/>
            <hierarchy hidden="0" locked="0" name="N"/>
            <edge ctrl_latitude_hi="0.000000000" ctrl_latitude_lo="0.000000000" ctrl_longitude_hi="0.000000000" ctrl_longitude_lo="0.000000000"/>
            <taxi_route oneway="0" runway="13/31" vehicle_class="Aircraft" width="C"/>
            <departures/>
            <arrivals/>
            <ils_holds/>
        </object>
        <object class="WED_TaxiRouteNode" id="246" parent_id="247">
            <sources/>
            <viewers>
                <viewer id="260"/>
            </viewers>
            <children/>
            <hierarchy hidden="0" locked="0" name="N_stop"/>
            <point latitude="7.191318496" longitude="100.603109901"/>
        </object>
        <object class="WED_Group" id="247" parent_id="5">
            <sources/>
            <viewers/>
            <children>
                <child id="245"/>
                <child id="251"/>
                <child id="258"/>
                <child id="271"/>
                <child id="260"/>
                <child id="246"/>
                <child id="244"/>
                <child id="250"/>
                <child id="257"/>
                <child id="374"/>
                <child id="270"/>
                <child id="259"/>
                <child id="269"/>
                <child id="267"/>
                <child id="268"/>
                <child id="265"/>
                <child id="584"/>
                <child id="273"/>
                <child id="581"/>
                <child id="578"/>
                <child id="266"/>
                <child id="263"/>
                <child id="264"/>
                <child id="583"/>
                <child id="272"/>
                <child id="580"/>
                <child id="577"/>
                <child id="261"/>
                <child id="262"/>
                <child id="256"/>
                <child id="254"/>
                <child id="255"/>
                <child id="252"/>
                <child id="253"/>
                <child id="585"/>
                <child id="582"/>
                <child id="579"/>
            </children>
            <hierarchy hidden="0" locked="0" name="Ground routes"/>
        </object>
        <object class="WED_RampPosition" id="248" parent_id="10">
            <sources/>
            <viewers>
                <viewer id="252"/>
            </viewers>
            <children/>
            <hierarchy hidden="0" locked="0" name="Platform 4"/>
            <point heading="36.61" latitude="7.184136837" longitude="100.607481158"/>
            <ramp_start airlines="" ramp_op_type="General Aviation" traffic="14" type="Tie-Down" width="B"/>
        </object>
        <object class="WED_TaxiRouteNode" id="250" parent_id="247">
            <sources/>
            <viewers>
                <viewer id="245"/>
                <viewer id="251"/>
                <viewer id="256"/>
            </viewers>
            <children/>
            <hierarchy hidden="0" locked="0" name="unnamed entity(split)"/>
            <point latitude="7.185702146" longitude="100.608814200"/>
        </object>
        <object class="WED_TaxiRoute" id="251" parent_id="247">
            <sources>
                <source id="250"/>
                <source id="257"/>
            </sources>
            <viewers/>
            <children/>
            <hierarchy hidden="0" locked="0" name="unnamed entity"/>
            <edge ctrl_latitude_hi="0.000000000" ctrl_latitude_lo="0.000000000" ctrl_longitude_hi="0.000000000" ctrl_longitude_lo="0.000000000"/>
            <taxi_route oneway="0" runway="13/31" vehicle_class="Aircraft" width="C"/>
            <departures/>
            <arrivals/>
            <ils_holds/>
        </object>
        <object class="WED_TaxiRoute" id="252" parent_id="247">
            <sources>
                <source id="248"/>
                <source id="253"/>
            </sources>
            <viewers/>
            <children/>
            <hierarchy hidden="0" locked="0" name="N"/>
            <edge ctrl_latitude_hi="0.000000000" ctrl_latitude_lo="0.000000000" ctrl_longitude_hi="0.000000000" ctrl_longitude_lo="0.000000000"/>
            <taxi_route oneway="0" runway="None" vehicle_class="Aircraft" width="B"/>
            <departures/>
            <arrivals/>
            <ils_holds/>
        </object>
        <object class="WED_TaxiRouteNode" id="253" parent_id="247">
            <sources/>
            <viewers>
                <viewer id="252"/>
                <viewer id="254"/>
            </viewers>
            <children/>
            <hierarchy hidden="0" locked="0" name="N_stop"/>
            <point latitude="7.184582957" longitude="100.608004049"/>
        </object>
        <object class="WED_TaxiRoute" id="254" parent_id="247">
            <sources>
                <source id="253"/>
                <source id="255"/>
            </sources>
            <viewers/>
            <children/>
            <hierarchy hidden="0" locked="0" name="N"/>
            <edge ctrl_latitude_hi="0.000000000" ctrl_latitude_lo="0.000000000" ctrl_longitude_hi="0.000000000" ctrl_longitude_lo="0.000000000"/>
            <taxi_route oneway="0" runway="None" vehicle_class="Aircraft" width="B"/>
            <departures/>
            <arrivals/>
            <ils_holds/>
        </object>
        <object class="WED_TaxiRouteNode" id="255" parent_id="247">
            <sources/>
            <viewers>
                <viewer id="254"/>
                <viewer id="256"/>
            </viewers>
            <children/>
            <hierarchy hidden="0" locked="0" name="N_stop"/>
            <point latitude="7.185317491" longitude="100.608527448"/>
        </object>
        <object class="WED_TaxiRoute" id="256" parent_id="247">
            <sources>
                <source id="255"/>
                <source id="250"/>
            </sources>
            <viewers/>
            <children/>
            <hierarchy hidden="0" locked="0" name="N"/>
            <edge ctrl_latitude_hi="0.000000000" ctrl_latitude_lo="0.000000000" ctrl_longitude_hi="0.000000000" ctrl_longitude_lo="0.000000000"/>
            <taxi_route oneway="0" runway="None" vehicle_class="Aircraft" width="B"/>
            <departures>
                <runway value="13"/>
                <runway value="31"/>
            </departures>
            <arrivals>
                <runway value="13"/>
                <runway value="31"/>
            </arrivals>
            <ils_holds/>
        </object>
        <object class="WED_TaxiRouteNode" id="257" parent_id="247">
            <sources/>
            <viewers>
                <viewer id="251"/>
                <viewer id="258"/>
                <viewer id="261"/>
            </viewers>
            <children/>
            <hierarchy hidden="0" locked="0" name="unnamed entity(split)"/>
            <point latitude="7.186586756" longitude="100.607917939"/>
        </object>
        <object class="WED_TaxiRoute" id="258" parent_id="247">
            <sources>
                <source id="257"/>
                <source id="270"/>
            </sources>
            <viewers/>
            <children/>
            <hierarchy hidden="0" locked="0" name="unnamed entity"/>
            <edge ctrl_latitude_hi="0.000000000" ctrl_latitude_lo="0.000000000" ctrl_longitude_hi="0.000000000" ctrl_longitude_lo="0.000000000"/>
            <taxi_route oneway="0" runway="13/31" vehicle_class="Aircraft" width="C"/>
            <departures/>
            <arrivals/>
            <ils_holds/>
        </object>
        <object class="WED_TaxiRouteNode" id="259" parent_id="247">
            <sources/>
            <viewers>
                <viewer id="260"/>
                <viewer id="269"/>
                <viewer id="271"/>
            </viewers>
            <children/>
            <hierarchy hidden="0" locked="0" name="unnamed entity(split)"/>
            <point latitude="7.188592529" longitude="100.605894581"/>
        </object>
        <object class="WED_TaxiRoute" id="260" parent_id="247">
            <sources>
                <source id="259"/>
                <source id="246"/>
            </sources>
            <viewers/>
            <children/>
            <hierarchy hidden="0" locked="0" name="unnamed entity"/>
            <edge ctrl_latitude_hi="0.000000000" ctrl_latitude_lo="0.000000000" ctrl_longitude_hi="0.000000000" ctrl_longitude_lo="0.000000000"/>
            <taxi_route oneway="0" runway="13/31" vehicle_class="Aircraft" width="C"/>
            <departures/>
            <arrivals/>
            <ils_holds/>
        </object>
        <object class="WED_TaxiRoute" id="261" parent_id="247">
            <sources>
                <source id="257"/>
                <source id="262"/>
            </sources>
            <viewers/>
            <children/>
            <hierarchy hidden="0" locked="0" name="N"/>
            <edge ctrl_latitude_hi="0.000000000" ctrl_latitude_lo="0.000000000" ctrl_longitude_hi="0.000000000" ctrl_longitude_lo="0.000000000"/>
            <taxi_route oneway="0" runway="None" vehicle_class="Aircraft" width="C"/>
            <departures>
                <runway value="13"/>
                <runway value="31"/>
            </departures>
            <arrivals>
                <runway value="13"/>
                <runway value="31"/>
