<?xml version="1.0" encoding="UTF-8"?>
<doc>
    <objects>
        <object class="WED_Root" id="1" parent_id="0">
            <sources/>
            <viewers/>
            <children>
                <child id="2"/>
                <child id="3"/>
                <child id="4"/>
            </children>
            <hierarchy name="root"/>
        </object>
        <object class="WED_Select" id="2" parent_id="1">
            <sources/>
            <viewers/>
            <children/>
            <hierarchy name="selection"/>
            <selection>
                <sel id="135"/>
            </selection>
        </object>
        <object class="WED_KeyObjects" id="3" parent_id="1">
            <sources/>
            <viewers/>
            <children/>
            <hierarchy name="choices"/>
            <keys>
                <key id="0" name="airport"/>
            </keys>
        </object>
        <object class="WED_Group" id="4" parent_id="1">
            <sources/>
            <viewers/>
            <children>
                <child id="133"/>
                <child id="130"/>
                <child id="121"/>
                <child id="118"/>
                <child id="115"/>
                <child id="112"/>
                <child id="107"/>
                <child id="85"/>
                <child id="91"/>
                <child id="27"/>
                <child id="26"/>
                <child id="25"/>
                <child id="24"/>
            </children>
            <hierarchy hidden="0" locked="0" name="world"/>
        </object>
        <object class="WED_ObjPlacement" id="24" parent_id="4">
            <sources/>
            <viewers/>
            <children/>
            <hierarchy hidden="0" locked="0" name="beacon_heliport.obj"/>
            <point heading="36.92" latitude="6.786113755" longitude="101.148908776"/>
            <obj_placement custom_msl="0" msl="0.000" resource="lib/airport/beacons/beacon_heliport.obj" show_level="1 Default"/>
        </object>
        <object class="WED_ObjPlacement" id="25" parent_id="4">
            <sources/>
            <viewers/>
            <children/>
            <hierarchy hidden="0" locked="0" name="beacon_heliport.obj"/>
            <point heading="-48.81" latitude="6.786121176" longitude="101.149179641"/>
            <obj_placement custom_msl="0" msl="0.000" resource="lib/airport/beacons/beacon_heliport.obj" show_level="1 Default"/>
        </object>
        <object class="WED_ObjPlacement" id="26" parent_id="4">
            <sources/>
            <viewers/>
            <children/>
            <hierarchy hidden="0" locked="0" name="beacon_heliport.obj"/>
            <point heading="243.43" latitude="6.785849831" longitude="101.149181509"/>
            <obj_placement custom_msl="0" msl="0.000" resource="lib/airport/beacons/beacon_heliport.obj" show_level="1 Default"/>
        </object>
        <object class="WED_ObjPlacement" id="27" parent_id="4">
            <sources/>
            <viewers/>
            <children/>
            <hierarchy hidden="0" locked="0" name="beacon_heliport.obj"/>
            <point heading="308.66" latitude="6.785849831" longitude="101.148908347"/>
            <obj_placement custom_msl="0" msl="0.000" resource="lib/airport/beacons/beacon_heliport.obj" show_level="1 Default"/>
        </object>
        <object class="WED_Ring" id="84" parent_id="85">
            <sources/>
            <viewers/>
            <children>
                <child id="86"/>
                <child id="87"/>
                <child id="88"/>
                <child id="89"/>
            </children>
            <hierarchy hidden="0" locked="0" name="Polygon 12 Outer Ring"/>
        </object>
        <object class="WED_PolygonPlacement" id="85" parent_id="4">
            <sources/>
            <viewers/>
            <children>
                <child id="84"/>
            </children>
            <hierarchy hidden="0" locked="0" name="grass_pol_sdry_fl.pol"/>
            <polygon_placement heading="0.0" resource="lib/g10/terrain10/grass_pol_sdry_fl.pol"/>
        </object>
        <object class="WED_SimpleBezierBoundaryNode" id="86" parent_id="84">
            <sources/>
            <viewers/>
            <children/>
            <hierarchy hidden="0" locked="0" name="Node 1"/>
            <point ctrl_latitude_hi="0.000000000" ctrl_latitude_lo="0.000000000" ctrl_longitude_hi="0.000000000" ctrl_longitude_lo="0.000000000" latitude="6.785849831" longitude="101.148908347" split="0"/>
        </object>
        <object class="WED_SimpleBezierBoundaryNode" id="87" parent_id="84">
            <sources/>
            <viewers/>
            <children/>
            <hierarchy hidden="0" locked="0" name="Node 2"/>
            <point ctrl_latitude_hi="0.000000000" ctrl_latitude_lo="0.000000000" ctrl_longitude_hi="0.000000000" ctrl_longitude_lo="0.000000000" latitude="6.785849831" longitude="101.149181509" split="0"/>
        </object>
        <object class="WED_SimpleBezierBoundaryNode" id="88" parent_id="84">
            <sources/>
            <viewers/>
            <children/>
            <hierarchy hidden="0" locked="0" name="Node 3"/>
            <point ctrl_latitude_hi="0.000000000" ctrl_latitude_lo="0.000000000" ctrl_longitude_hi="0.000000000" ctrl_longitude_lo="0.000000000" latitude="6.786121176" longitude="101.149179641" split="0"/>
        </object>
        <object class="WED_SimpleBezierBoundaryNode" id="89" parent_id="84">
            <sources/>
            <viewers/>
            <children/>
            <hierarchy hidden="0" locked="0" name="Node 4"/>
            <point ctrl_latitude_hi="0.000000000" ctrl_latitude_lo="0.000000000" ctrl_longitude_hi="0.000000000" ctrl_longitude_lo="0.000000000" latitude="6.786116669" longitude="101.148906126" split="0"/>
        </object>
        <object class="WED_Ring" id="90" parent_id="91">
            <sources/>
            <viewers/>
            <children>
                <child id="92"/>
                <child id="93"/>
                <child id="94"/>
                <child id="95"/>
            </children>
            <hierarchy hidden="0" locked="0" name="Polygon 13 Outer Ring"/>
        </object>
        <object class="WED_PolygonPlacement" id="91" parent_id="4">
            <sources/>
            <viewers/>
            <children>
                <child id="90"/>
            </children>
            <hierarchy hidden="0" locked="0" name="any_cld_dry_fl_tp.pol"/>
            <polygon_placement heading="0.0" resource="lib/g10/terrain10/any_cld_dry_fl_tp.pol"/>
        </object>
        <object class="WED_SimpleBezierBoundaryNode" id="92" parent_id="90">
            <sources/>
            <viewers/>
            <children/>
            <hierarchy hidden="0" locked="0" name="Node 1"/>
            <point ctrl_latitude_hi="0.000000000" ctrl_latitude_lo="0.000000000" ctrl_longitude_hi="0.000000000" ctrl_longitude_lo="0.000000000" latitude="6.786000860" longitude="101.148425917" split="0"/>
        </object>
        <object class="WED_SimpleBezierBoundaryNode" id="93" parent_id="90">
            <sources/>
            <viewers/>
            <children/>
            <hierarchy hidden="0" locked="0" name="Node 2"/>
            <point ctrl_latitude_hi="-0.000003811" ctrl_latitude_lo="0.000003811" ctrl_longitude_hi="0.000000000" ctrl_longitude_lo="-0.000000000" latitude="6.785937329" longitude="101.148425351" split="0"/>
        </object>
        <object class="WED_SimpleBezierBoundaryNode" id="94" parent_id="90">
            <sources/>
            <viewers/>
            <children/>
            <hierarchy hidden="0" locked="0" name="Node 3"/>
            <point ctrl_latitude_hi="0.000000000" ctrl_latitude_lo="0.000000000" ctrl_longitude_hi="0.000000000" ctrl_longitude_lo="0.000000000" latitude="6.785941876" longitude="101.148906815" split="0"/>
        </object>
        <object class="WED_SimpleBezierBoundaryNode" id="95" parent_id="90">
            <sources/>
            <viewers/>
            <children/>
            <hierarchy hidden="0" locked="0" name="Node 4"/>
            <point ctrl_latitude_hi="0.000000000" ctrl_latitude_lo="0.000000000" ctrl_longitude_hi="0.000000000" ctrl_longitude_lo="0.000000000" latitude="6.786013427" longitude="101.148905869" split="0"/>
        </object>
        <object class="WED_LinePlacement" id="107" parent_id="4">
            <sources/>
            <viewers/>
            <children>
                <child id="108"/>
                <child id="109"/>
                <child id="110"/>
                <child id="111"/>
            </children>
            <hierarchy hidden="0" locked="0" name="1_single_taxi.lin"/>
            <line_placement closed="1" resource="lib/airport/lines/51_single_taxi_b.lin"/>
        </object>
        <object class="WED_SimpleBezierBoundaryNode" id="108" parent_id="107">
            <sources/>
            <viewers/>
            <children/>
            <hierarchy hidden="0" locked="0" name="Node 1"/>
            <point ctrl_latitude_hi="0.000000000" ctrl_latitude_lo="0.000000000" ctrl_longitude_hi="0.000000000" ctrl_longitude_lo="0.000000000" latitude="6.786109957" longitude="101.149165379" split="0"/>
        </object>
        <object class="WED_SimpleBezierBoundaryNode" id="109" parent_id="107">
            <sources/>
            <viewers/>
            <children/>
            <hierarchy hidden="0" locked="0" name="Node 2"/>
            <point ctrl_latitude_hi="0.000000000" ctrl_latitude_lo="0.000000000" ctrl_longitude_hi="0.000000000" ctrl_longitude_lo="0.000000000" latitude="6.785863225" longitude="101.149170734" split="0"/>
        </object>
        <object class="WED_SimpleBezierBoundaryNode" id="110" parent_id="107">
            <sources/>
            <viewers/>
            <children/>
            <hierarchy hidden="0" locked="0" name="Node 3"/>
            <point ctrl_latitude_hi="0.000000000" ctrl_latitude_lo="0.000000000" ctrl_longitude_hi="0.000000000" ctrl_longitude_lo="0.000000000" latitude="6.785861098" longitude="101.148916907" split="0"/>
        </object>
        <object class="WED_SimpleBezierBoundaryNode" id="111" parent_id="107">
            <sources/>
            <viewers/>
            <children/>
            <hierarchy hidden="0" locked="0" name="Node 4"/>
            <point ctrl_latitude_hi="0.000000000" ctrl_latitude_lo="0.000000000" ctrl_longitude_hi="0.000000000" ctrl_longitude_lo="0.000000000" latitude="6.786105703" longitude="101.148919049" split="0"/>
        </object>
        <object class="WED_LinePlacement" id="112" parent_id="4">
            <sources/>
            <viewers/>
            <children>
                <child id="113"/>
                <child id="114"/>
            </children>
            <hierarchy hidden="0" locked="0" name="1_single_taxi.lin"/>
            <line_placement closed="0" resource="lib/airport/lines/1_single_taxi.lin"/>
        </object>
        <object class="WED_SimpleBezierBoundaryNode" id="113" parent_id="112">
            <sources/>
            <viewers/>
            <children/>
            <hierarchy hidden="0" locked="0" name="Node 1"/>
            <point ctrl_latitude_hi="0.000000000" ctrl_latitude_lo="0.000000000" ctrl_longitude_hi="0.000000000" ctrl_longitude_lo="0.000000000" latitude="6.785980070" longitude="101.148917423" split="0"/>
        </object>
        <object class="WED_SimpleBezierBoundaryNode" id="114" parent_id="112">
            <sources/>
            <viewers/>
            <children/>
            <hierarchy hidden="0" locked="0" name="Node 2"/>
            <point ctrl_latitude_hi="0.000000000" ctrl_latitude_lo="0.000000000" ctrl_longitude_hi="0.000000000" ctrl_longitude_lo="0.000000000" latitude="6.785982197" longitude="101.148985967" split="0"/>
        </object>
        <object class="WED_LinePlacement" id="115" parent_id="4">
            <sources/>
            <viewers/>
            <children>
                <child id="116"/>
                <child id="117"/>
            </children>
            <hierarchy hidden="0" locked="0" name="1_single_taxi.lin"/>
            <line_placement closed="0" resource="lib/airport/lines/1_single_taxi.lin"/>
        </object>
        <object class="WED_SimpleBezierBoundaryNode" id="116" parent_id="115">
            <sources/>
            <viewers/>
            <children/>
            <hierarchy hidden="0" locked="0" name="Node 1"/>
            <point ctrl_latitude_hi="0.000000000" ctrl_latitude_lo="0.000000000" ctrl_longitude_hi="0.000000000" ctrl_longitude_lo="0.000000000" latitude="6.785988578" longitude="101.149165896" split="0"/>
        </object>
        <object class="WED_SimpleBezierBoundaryNode" id="117" parent_id="115">
            <sources/>
            <viewers/>
            <children/>
            <hierarchy hidden="0" locked="0" name="Node 2"/>
            <point ctrl_latitude_hi="0.000000000" ctrl_latitude_lo="0.000000000" ctrl_longitude_hi="0.000000000" ctrl_longitude_lo="0.000000000" latitude="6.785986451" longitude="101.149106991" split="0"/>
        </object>
        <object class="WED_LinePlacement" id="118" parent_id="4">
            <sources/>
            <viewers/>
            <children>
                <child id="119"/>
                <child id="120"/>
            </children>
            <hierarchy hidden="0" locked="0" name="1_single_taxi.lin"/>
            <line_placement closed="0" resource="lib/airport/lines/1_single_taxi.lin"/>
        </object>
        <object class="WED_SimpleBezierBoundaryNode" id="119" parent_id="118">
            <sources/>
            <viewers/>
            <children/>
            <hierarchy hidden="0" locked="0" name="Node 1"/>
            <point ctrl_latitude_hi="0.000000000" ctrl_latitude_lo="0.000000000" ctrl_longitude_hi="0.000000000" ctrl_longitude_lo="0.000000000" latitude="6.786107690" longitude="101.149038982" split="0"/>
        </object>
        <object class="WED_SimpleBezierBoundaryNode" id="120" parent_id="118">
            <sources/>
            <viewers/>
            <children/>
            <hierarchy hidden="0" locked="0" name="Node 2"/>
            <point ctrl_latitude_hi="0.000000000" ctrl_latitude_lo="0.000000000" ctrl_longitude_hi="0.000000000" ctrl_longitude_lo="0.000000000" latitude="6.786039272" longitude="101.149038625" split="0"/>
        </object>
        <object class="WED_LinePlacement" id="121" parent_id="4">
            <sources/>
            <viewers/>
            <children>
                <child id="122"/>
                <child id="123"/>
            </children>
            <hierarchy hidden="0" locked="0" name="1_single_taxi.lin"/>
            <line_placement closed="0" resource="lib/airport/lines/1_single_taxi.lin"/>
        </object>
        <object class="WED_SimpleBezierBoundaryNode" id="122" parent_id="121">
            <sources/>
            <viewers/>
            <children/>
            <hierarchy hidden="0" locked="0" name="Node 1"/>
            <point ctrl_latitude_hi="0.000000000" ctrl_latitude_lo="0.000000000" ctrl_longitude_hi="0.000000000" ctrl_longitude_lo="0.000000000" latitude="6.785862022" longitude="101.149042374" split="0"/>
        </object>
        <object class="WED_SimpleBezierBoundaryNode" id="123" parent_id="121">
            <sources/>
            <viewers/>
            <children/>
            <hierarchy hidden="0" locked="0" name="Node 2"/>
            <point ctrl_latitude_hi="0.000000000" ctrl_latitude_lo="0.000000000" ctrl_longitude_hi="0.000000000" ctrl_longitude_lo="0.000000000" latitude="6.785923528" longitude="101.149042374" split="0"/>
        </object>
        <object class="WED_LinePlacement" id="130" parent_id="4">
            <sources/>
            <viewers/>
            <children>
                <child id="131"/>
                <child id="132"/>
            </children>
            <hierarchy hidden="0" locked="0" name="20_road_edge.lin"/>
            <line_placement closed="0" resource="lib/airport/lines/20_road_edge.lin"/>
        </object>
        <object class="WED_SimpleBezierBoundaryNode" id="131" parent_id="130">
            <sources/>
            <viewers/>
            <children/>
            <hierarchy hidden="0" locked="0" name="Node 1"/>
            <point ctrl_latitude_hi="0.000000000" ctrl_latitude_lo="0.000000000" ctrl_longitude_hi="0.000000000" ctrl_longitude_lo="0.000000000" latitude="6.786012360" longitude="101.148917616" split="0"/>
        </object>
        <object class="WED_SimpleBezierBoundaryNode" id="132" parent_id="130">
            <sources/>
            <viewers/>
            <children/>
            <hierarchy hidden="0" locked="0" name="Node 2"/>
            <point ctrl_latitude_hi="0.000000000" ctrl_latitude_lo="0.000000000" ctrl_longitude_hi="0.000000000" ctrl_longitude_lo="0.000000000" latitude="6.785998180" longitude="101.148421385" split="0"/>
        </object>
        <object class="WED_LinePlacement" id="133" parent_id="4">
            <sources/>
            <viewers/>
            <children>
                <child id="134"/>
                <child id="135"/>
            </children>
            <hierarchy hidden="0" locked="0" name="20_road_edge.lin"/>
            <line_placement closed="0" resource="lib/airport/lines/20_road_edge.lin"/>
        </object>
        <object class="WED_SimpleBezierBoundaryNode" id="134" parent_id="133">
            <sources/>
            <viewers/>
            <children/>
            <hierarchy hidden="0" locked="0" name="Node 1"/>
            <point ctrl_latitude_hi="0.000000000" ctrl_latitude_lo="0.000000000" ctrl_longitude_hi="0.000000000" ctrl_longitude_lo="0.000000000" latitude="6.785945005" longitude="101.148917616" split="0"/>
        </object>
        <object class="WED_SimpleBezierBoundaryNode" id="135" parent_id="133">
            <sources/>
            <viewers/>
            <children/>
            <hierarchy hidden="0" locked="0" name="Node 2"/>
            <point ctrl_latitude_hi="0.000000000" ctrl_latitude_lo="0.000000000" ctrl_longitude_hi="0.000000000" ctrl_longitude_lo="0.000000000" latitude="6.785938628" longitude="101.148421352" split="0"/>
        </object>
    </objects>
    <prefs>
        <pref name="PropertyPane0/Closed"/>
        <pref name="doc/export_target" value="4"/>
        <pref name="doc/use_feet" value="1"/>
        <pref name="map/east" value="101.149757"/>
        <pref name="map/north" value="6.786728"/>
        <pref name="map/obj_density" value="6"/>
        <pref name="map/pavement_alpha" value="1"/>
        <pref name="map/preview_vis" value="1"/>
        <pref name="map/real_lines_vis" value="1"/>
        <pref name="map/south" value="6.785240"/>
        <pref name="map/vertices_vis" value="1"/>
        <pref name="map/west" value="101.147837"/>
        <pref name="map/world_map_vis" value="0"/>
        <pref name="map_Airport Beacon_Kind" value="69"/>
        <pref name="map_Boundary_.Markings" value=""/>
        <pref name="map_Boundary_Lights" value=""/>
        <pref name="map_Boundary_Markings" value=""/>
        <pref name="map_Exclusions_Exclusions" value="112"/>
        <pref name="map_Facades_Height" value="10.000000"/>
        <pref name="map_Facades_Resource" value="lib/airport/Common_Elements/Fence_Facades/Fence.fac"/>
        <pref name="map_Forests_Density" value="0.000000"/>
        <pref name="map_Forests_Resource" value="lib/g10/forests/AG_trees_EU1.for"/>
        <pref name="map_Helipad_Edge Lights" value="15"/>
        <pref name="map_Helipad_Markings" value="67"/>
        <pref name="map_Helipad_Roughness" value="0.000000"/>
        <pref name="map_Helipad_Shoulder" value="56"/>
        <pref name="map_Helipad_Surface" value="27"/>
        <pref name="map_Hole_.Markings" value=""/>
        <pref name="map_Hole_Lights" value=""/>
        <pref name="map_Hole_Markings" value=""/>
        <pref name="map_Light Fixture_Approach Angle" value="3.000000"/>
        <pref name="map_Light Fixture_Fixture Type" value="35"/>
        <pref name="map_Lines_Resource" value="lib/airport/lines/20_road_edge.lin"/>
        <pref name="map_Objects_Object" value="lib/airport/beacons/beacon_heliport.obj"/>
        <pref name="map_Objects_Show with" value="558"/>
        <pref name="map_Polygons_Heading" value="0.000000"/>
        <pref name="map_Polygons_Resource" value="lib/g10/terrain10/any_cld_dry_fl_tp.pol"/>
        <pref name="map_Polygons_Use Texture Map - Orthophoto" value="0"/>
        <pref name="map_Ramp Start_Airlines" value=""/>
        <pref name="map_Ramp Start_Equipment Type" value="130,131,132"/>
        <pref name="map_Ramp Start_Ramp Operation Type" value="531"/>
        <pref name="map_Ramp Start_Ramp Start Type" value="141"/>
        <pref name="map_Ramp Start_Size" value="524"/>
        <pref name="map_Runway_Appch" value="46"/>
        <pref name="map_Runway_Center" value="1"/>
        <pref name="map_Runway_Dist" value="1"/>
        <pref name="map_Runway_Edge" value="7"/>
        <pref name="map_Runway_Marks" value="61"/>
        <pref name="map_Runway_REIL" value="11"/>
        <pref name="map_Runway_Rough" value="147.000000"/>
        <pref name="map_Runway_Shoulder" value="58"/>
        <pref name="map_Runway_Surface" value="25"/>
        <pref name="map_Runway_TDZL" value="0"/>
        <pref name="map_Sealane_Buoys" value="1"/>
        <pref name="map_Sign_Size" value="17"/>
        <pref name="map_Sign_Style" value="23"/>
        <pref name="map_Sign_Text" value="{@R}24-06{@@,@Y}WELCOME"/>
        <pref name="map_Strings_Resource" value="lib/airport/lights/slow/102_edge_twy_B.str"/>
        <pref name="map_Strings_Spacing" value="5.000000"/>
        <pref name="map_Taxi Routes_Allowed Vehicles" value="144"/>
        <pref name="map_Taxi Routes_Arrival" value=""/>
        <pref name="map_Taxi Routes_Departure" value=""/>
        <pref name="map_Taxi Routes_ILS" value=""/>
        <pref name="map_Taxi Routes_Name" value="N"/>
        <pref name="map_Taxi Routes_Oneway" value="0"/>
        <pref name="map_Taxi Routes_Runway" value="305"/>
        <pref name="map_Taxi Routes_Size" value="527"/>
        <pref name="map_Taxi Routes_Slop" value="20"/>
        <pref name="map_Taxilines_.Markings" value="78"/>
        <pref name="map_Taxilines_Lights" value=""/>
        <pref name="map_Taxilines_Markings" value="78"/>
        <pref name="map_Taxiway_.Markings" value=""/>
        <pref name="map_Taxiway_Heading" value="0.000000"/>
        <pref name="map_Taxiway_Lights" value=""/>
        <pref name="map_Taxiway_Markings" value=""/>
        <pref name="map_Taxiway_Pavement" value="30"/>
        <pref name="map_Taxiway_Roughness" value="0.000000"/>
        <pref name="map_Tower Viewpoint_Tower Height" value="25.000000"/>
        <pref name="map_Truck Destination_Truck Types" value=""/>
        <pref name="map_Truck Parking_." value="3"/>
        <pref name="map_Truck Parking_Truck Type" value="156"/>
        <pref name="map_Vertex_Snap To Vertices" value="1"/>
        <pref name="map_Windsock_Lit" value="0"/>
        <pref name="window/height" value="827"/>
        <pref name="window/main_split" value="324"/>
        <pref name="window/main_split2" value="1430"/>
        <pref name="window/prev_split" value="385"/>
        <pref name="window/prop_split" value="394"/>
        <pref name="window/width" value="1440"/>
        <pref name="window/x_loc" value="-1448"/>
        <pref name="window/y_loc" value="168"/>
    </prefs>
</doc>
